Name,ShortName,LevelType,CityCode,ZipCode,MergerName,lng,Lat,Pinyin
中国,中国,0,,,中国,116.3683244,39.915085,China
北京,北京,1,,,中国-北京,116.405285,39.904989,Beijing
北京市,北京,2,10,100000,中国-北京-北京市,116.405285,39.904989,Beijing
东城区,东城,3,10,100010,中国-北京-北京市-东城区,116.41005,39.93157,Dongcheng
西城区,西城,3,10,100032,中国-北京-北京市-西城区,116.36003,39.9305,Xicheng
朝阳区,朝阳,3,10,100020,中国-北京-北京市-朝阳区,116.48548,39.9484,Chaoyang
丰台区,丰台,3,10,100071,中国-北京-北京市-丰台区,116.28625,39.8585,Fengtai
石景山区,石景山,3,10,100043,中国-北京-北京市-石景山区,116.2229,39.90564,Shijingshan
海淀区,海淀,3,10,100089,中国-北京-北京市-海淀区,116.29812,39.95931,Haidian
门头沟区,门头沟,3,10,102300,中国-北京-北京市-门头沟区,116.10137,39.94043,Mentougou
房山区,房山,3,10,102488,中国-北京-北京市-房山区,116.14257,39.74786,Fangshan
通州区,通州,3,10,101149,中国-北京-北京市-通州区,116.65716,39.90966,Tongzhou
顺义区,顺义,3,10,101300,中国-北京-北京市-顺义区,116.65417,40.1302,Shunyi
昌平区,昌平,3,10,102200,中国-北京-北京市-昌平区,116.2312,40.22072,Changping
大兴区,大兴,3,10,102600,中国-北京-北京市-大兴区,116.34149,39.72668,Daxing
怀柔区,怀柔,3,10,101400,中国-北京-北京市-怀柔区,116.63168,40.31602,Huairou
平谷区,平谷,3,10,101200,中国-北京-北京市-平谷区,117.12133,40.14056,Pinggu
密云县,密云,3,10,101500,中国-北京-北京市-密云县,116.84295,40.37618,Miyun
延庆县,延庆,3,10,102100,中国-北京-北京市-延庆县,115.97494,40.45672,Yanqing
天津,天津,1,,,中国-天津,117.190182,39.125596,Tianjin
天津市,天津,2,22,300000,中国-天津-天津市,117.190182,39.125596,Tianjin
和平区,和平,3,22,300041,中国-天津-天津市-和平区,117.21456,39.11718,Heping
河东区,河东,3,22,300171,中国-天津-天津市-河东区,117.22562,39.12318,Hedong
河西区,河西,3,22,300202,中国-天津-天津市-河西区,117.22327,39.10959,Hexi
南开区,南开,3,22,300110,中国-天津-天津市-南开区,117.15074,39.13821,Nankai
河北区,河北,3,22,300143,中国-天津-天津市-河北区,117.19697,39.14816,Hebei
红桥区,红桥,3,22,300131,中国-天津-天津市-红桥区,117.15145,39.16715,Hongqiao
东丽区,东丽,3,22,300300,中国-天津-天津市-东丽区,117.31436,39.0863,Dongli
西青区,西青,3,22,300380,中国-天津-天津市-西青区,117.00927,39.14123,Xiqing
津南区,津南,3,22,300350,中国-天津-天津市-津南区,117.38537,38.99139,Jinnan
北辰区,北辰,3,22,300400,中国-天津-天津市-北辰区,117.13217,39.22131,Beichen
武清区,武清,3,22,301700,中国-天津-天津市-武清区,117.04443,39.38415,Wuqing
宝坻区,宝坻,3,22,301800,中国-天津-天津市-宝坻区,117.3103,39.71761,Baodi
滨海新区,滨海新区,3,22,300451,中国-天津-天津市-滨海新区,117.70162,39.02668,Binhaixinqu
宁河县,宁河,3,22,301500,中国-天津-天津市-宁河县,117.8255,39.33048,Ninghe
静海县,静海,3,22,301600,中国-天津-天津市-静海县,116.97436,38.94582,Jinghai
蓟县,蓟县,3,22,301900,中国-天津-天津市-蓟县,117.40799,40.04567,Jixian
河北省,河北,1,,,中国-河北省,114.502461,38.045474,Hebei
石家庄市,石家庄,2,311,50011,中国-河北省-石家庄市,114.502461,38.045474,Shijiazhuang
长安区,长安,3,311,50011,中国-河北省-石家庄市-长安区,114.53906,38.03665,Chang'an
桥西区,桥西,3,311,50091,中国-河北省-石家庄市-桥西区,114.46977,38.03221,Qiaoxi
新华区,新华,3,311,50051,中国-河北省-石家庄市-新华区,114.46326,38.05088,Xinhua
井陉矿区,井陉矿区,3,311,50100,中国-河北省-石家庄市-井陉矿区,114.06518,38.06705,Jingxingkuangqu
裕华区,裕华,3,311,50031,中国-河北省-石家庄市-裕华区,114.53115,38.00604,Yuhua
藁城区,藁城,3,311,52160,中国-河北省-石家庄市-藁城区,114.84671,38.02162,Gaocheng
鹿泉区,鹿泉,3,311,50200,中国-河北省-石家庄市-鹿泉区,114.31347,38.08782,Luquan
栾城区,栾城,3,311,51430,中国-河北省-石家庄市-栾城区,114.64834,37.90022,Luancheng
井陉县,井陉,3,311,50300,中国-河北省-石家庄市-井陉县,114.14257,38.03688,Jingxing
正定县,正定,3,311,50800,中国-河北省-石家庄市-正定县,114.57296,38.14445,Zhengding
行唐县,行唐,3,311,50600,中国-河北省-石家庄市-行唐县,114.55316,38.43654,Xingtang
灵寿县,灵寿,3,311,50500,中国-河北省-石家庄市-灵寿县,114.38259,38.30845,Lingshou
高邑县,高邑,3,311,51330,中国-河北省-石家庄市-高邑县,114.61142,37.61556,Gaoyi
深泽县,深泽,3,311,52560,中国-河北省-石家庄市-深泽县,115.20358,38.18353,Shenze
赞皇县,赞皇,3,311,51230,中国-河北省-石家庄市-赞皇县,114.38775,37.66135,Zanhuang
无极县,无极,3,311,52460,中国-河北省-石家庄市-无极县,114.97509,38.17653,Wuji
平山县,平山,3,311,50400,中国-河北省-石家庄市-平山县,114.186,38.25994,Pingshan
元氏县,元氏,3,311,51130,中国-河北省-石家庄市-元氏县,114.52539,37.76668,Yuanshi
赵县,赵县,3,311,51530,中国-河北省-石家庄市-赵县,114.77612,37.75628,Zhaoxian
辛集市,辛集,3,311,52360,中国-河北省-石家庄市-辛集市,115.20626,37.94079,Xinji
晋州市,晋州,3,311,52260,中国-河北省-石家庄市-晋州市,115.04348,38.03135,Jinzhou
新乐市,新乐,3,311,50700,中国-河北省-石家庄市-新乐市,114.68985,38.34417,Xinle
唐山市,唐山,2,315,63000,中国-河北省-唐山市,118.175393,39.635113,Tangshan
路南区,路南,3,315,63000,中国-河北省-唐山市-路南区,118.15431,39.62505,Lunan
路北区,路北,3,315,63000,中国-河北省-唐山市-路北区,118.20079,39.62436,Lubei
古冶区,古冶,3,315,63100,中国-河北省-唐山市-古冶区,118.45803,39.71993,Guye
开平区,开平,3,315,63021,中国-河北省-唐山市-开平区,118.26171,39.67128,Kaiping
丰南区,丰南,3,315,63300,中国-河北省-唐山市-丰南区,118.11282,39.56483,Fengnan
丰润区,丰润,3,315,64000,中国-河北省-唐山市-丰润区,118.12976,39.8244,Fengrun
曹妃甸区,曹妃甸,3,315,63200,中国-河北省-唐山市-曹妃甸区,118.460379,39.27307,Caofeidian
滦县,滦县,3,315,63700,中国-河北省-唐山市-滦县,118.70346,39.74056,Luanxian
滦南县,滦南,3,315,63500,中国-河北省-唐山市-滦南县,118.6741,39.5039,Luannan
乐亭县,乐亭,3,315,63600,中国-河北省-唐山市-乐亭县,118.9125,39.42561,Laoting
迁西县,迁西,3,315,64300,中国-河北省-唐山市-迁西县,118.31616,40.14587,Qianxi
玉田县,玉田,3,315,64100,中国-河北省-唐山市-玉田县,117.7388,39.90049,Yutian
遵化市,遵化,3,315,64200,中国-河北省-唐山市-遵化市,117.96444,40.18741,Zunhua
迁安市,迁安,3,315,64400,中国-河北省-唐山市-迁安市,118.70068,39.99833,Qian'an
秦皇岛市,秦皇岛,2,335,66000,中国-河北省-秦皇岛市,119.586579,39.942531,Qinhuangdao
海港区,海港,3,335,66000,中国-河北省-秦皇岛市-海港区,119.61046,39.9345,Haigang
山海关区,山海关,3,335,66200,中国-河北省-秦皇岛市-山海关区,119.77563,39.97869,Shanhaiguan
北戴河区,北戴河,3,335,66100,中国-河北省-秦皇岛市-北戴河区,119.48388,39.83408,Beidaihe
青龙满族自治县,青龙,3,335,66500,中国-河北省-秦皇岛市-青龙满族自治县,118.95242,40.40743,Qinglong
昌黎县,昌黎,3,335,66600,中国-河北省-秦皇岛市-昌黎县,119.16595,39.70884,Changli
抚宁县,抚宁,3,335,66300,中国-河北省-秦皇岛市-抚宁县,119.24487,39.87538,Funing
卢龙县,卢龙,3,335,66400,中国-河北省-秦皇岛市-卢龙县,118.89288,39.89176,Lulong
邯郸市,邯郸,2,310,56002,中国-河北省-邯郸市,114.490686,36.612273,Handan
邯山区,邯山,3,310,56001,中国-河北省-邯郸市-邯山区,114.48375,36.60006,Hanshan
丛台区,丛台,3,310,56002,中国-河北省-邯郸市-丛台区,114.49343,36.61847,Congtai
复兴区,复兴,3,310,56003,中国-河北省-邯郸市-复兴区,114.45928,36.61134,Fuxing
峰峰矿区,峰峰矿区,3,310,56200,中国-河北省-邯郸市-峰峰矿区,114.21148,36.41937,Fengfengkuangqu
邯郸县,邯郸,3,310,56101,中国-河北省-邯郸市-邯郸县,114.53103,36.59385,Handan
临漳县,临漳,3,310,56600,中国-河北省-邯郸市-临漳县,114.6195,36.33461,Linzhang
成安县,成安,3,310,56700,中国-河北省-邯郸市-成安县,114.66995,36.44411,Cheng'an
大名县,大名,3,310,56900,中国-河北省-邯郸市-大名县,115.15362,36.27994,Daming
涉县,涉县,3,310,56400,中国-河北省-邯郸市-涉县,113.69183,36.58072,Shexian
磁县,磁县,3,310,56500,中国-河北省-邯郸市-磁县,114.37387,36.37392,Cixian
肥乡县,肥乡,3,310,57550,中国-河北省-邯郸市-肥乡县,114.79998,36.54807,Feixiang
永年县,永年,3,310,57150,中国-河北省-邯郸市-永年县,114.48925,36.78356,Yongnian
邱县,邱县,3,310,57450,中国-河北省-邯郸市-邱县,115.17407,36.82082,Qiuxian
鸡泽县,鸡泽,3,310,57350,中国-河北省-邯郸市-鸡泽县,114.8742,36.92374,Jize
广平县,广平,3,310,57650,中国-河北省-邯郸市-广平县,114.94653,36.48046,Guangping
馆陶县,馆陶,3,310,57750,中国-河北省-邯郸市-馆陶县,115.29913,36.53719,Guantao
魏县,魏县,3,310,56800,中国-河北省-邯郸市-魏县,114.93518,36.36171,Weixian
曲周县,曲周,3,310,57250,中国-河北省-邯郸市-曲周县,114.95196,36.77671,Quzhou
武安市,武安,3,310,56300,中国-河北省-邯郸市-武安市,114.20153,36.69281,Wu'an
邢台市,邢台,2,319,54001,中国-河北省-邢台市,114.508851,37.0682,Xingtai
桥东区,桥东,3,319,54001,中国-河北省-邢台市-桥东区,114.50725,37.06801,Qiaodong
桥西区,桥西,3,319,54000,中国-河北省-邢台市-桥西区,114.46803,37.05984,Qiaoxi
邢台县,邢台,3,319,54001,中国-河北省-邢台市-邢台县,114.56575,37.0456,Xingtai
临城县,临城,3,319,54300,中国-河北省-邢台市-临城县,114.50387,37.43977,Lincheng
内丘县,内丘,3,319,54200,中国-河北省-邢台市-内丘县,114.51212,37.28671,Neiqiu
柏乡县,柏乡,3,319,55450,中国-河北省-邢台市-柏乡县,114.69332,37.48242,Baixiang
隆尧县,隆尧,3,319,55350,中国-河北省-邢台市-隆尧县,114.77615,37.35351,Longyao
任县,任县,3,319,55150,中国-河北省-邢台市-任县,114.6842,37.12575,Renxian
南和县,南和,3,319,54400,中国-河北省-邢台市-南和县,114.68371,37.00488,Nanhe
宁晋县,宁晋,3,319,55550,中国-河北省-邢台市-宁晋县,114.92117,37.61696,Ningjin
巨鹿县,巨鹿,3,319,55250,中国-河北省-邢台市-巨鹿县,115.03524,37.21801,Julu
新河县,新河,3,319,55650,中国-河北省-邢台市-新河县,115.24987,37.52718,Xinhe
广宗县,广宗,3,319,54600,中国-河北省-邢台市-广宗县,115.14254,37.0746,Guangzong
平乡县,平乡,3,319,54500,中国-河北省-邢台市-平乡县,115.03002,37.06317,Pingxiang
威县,威县,3,319,54700,中国-河北省-邢台市-威县,115.2637,36.9768,Weixian
清河县,清河,3,319,54800,中国-河北省-邢台市-清河县,115.66479,37.07122,Qinghe
临西县,临西,3,319,54900,中国-河北省-邢台市-临西县,115.50097,36.87078,Linxi
南宫市,南宫,3,319,55750,中国-河北省-邢台市-南宫市,115.39068,37.35799,Nangong
沙河市,沙河,3,319,54100,中国-河北省-邢台市-沙河市,114.4981,36.8577,Shahe
保定市,保定,2,312,71052,中国-河北省-保定市,115.482331,38.867657,Baoding
新市区,新市,3,312,71051,中国-河北省-保定市-新市区,115.4587,38.87751,Xinshi
北市区,北市,3,312,71000,中国-河北省-保定市-北市区,115.49715,38.88322,Beishi
南市区,南市,3,312,71001,中国-河北省-保定市-南市区,115.52859,38.85455,Nanshi
满城县,满城,3,312,72150,中国-河北省-保定市-满城县,115.32296,38.94972,Mancheng
清苑县,清苑,3,312,71100,中国-河北省-保定市-清苑县,115.49267,38.76709,Qingyuan
涞水县,涞水,3,312,74100,中国-河北省-保定市-涞水县,115.71517,39.39404,Laishui
阜平县,阜平,3,312,73200,中国-河北省-保定市-阜平县,114.19683,38.84763,Fuping
徐水县,徐水,3,312,72550,中国-河北省-保定市-徐水县,115.65829,39.02099,Xushui
定兴县,定兴,3,312,72650,中国-河北省-保定市-定兴县,115.80786,39.26312,Dingxing
唐县,唐县,3,312,72350,中国-河北省-保定市-唐县,114.98516,38.74513,Tangxian
高阳县,高阳,3,312,71500,中国-河北省-保定市-高阳县,115.7788,38.70003,Gaoyang
容城县,容城,3,312,71700,中国-河北省-保定市-容城县,115.87158,39.0535,Rongcheng
涞源县,涞源,3,312,74300,中国-河北省-保定市-涞源县,114.69128,39.35388,Laiyuan
望都县,望都,3,312,72450,中国-河北省-保定市-望都县,115.1567,38.70996,Wangdu
安新县,安新,3,312,71600,中国-河北省-保定市-安新县,115.93557,38.93532,Anxin
易县,易县,3,312,74200,中国-河北省-保定市-易县,115.4981,39.34885,Yixian
曲阳县,曲阳,3,312,73100,中国-河北省-保定市-曲阳县,114.70123,38.62154,Quyang
蠡县,蠡县,3,312,71400,中国-河北省-保定市-蠡县,115.57717,38.48974,Lixian
顺平县,顺平,3,312,72250,中国-河北省-保定市-顺平县,115.1347,38.83854,Shunping
博野县,博野,3,312,71300,中国-河北省-保定市-博野县,115.47033,38.4564,Boye
雄县,雄县,3,312,71800,中国-河北省-保定市-雄县,116.10873,38.99442,Xiongxian
涿州市,涿州,3,312,72750,中国-河北省-保定市-涿州市,115.98062,39.48622,Zhuozhou
定州市,定州,3,312,73000,中国-河北省-保定市-定州市,114.9902,38.51623,Dingzhou
安国市,安国,3,312,71200,中国-河北省-保定市-安国市,115.32321,38.41391,Anguo
高碑店市,高碑店,3,312,74000,中国-河北省-保定市-高碑店市,115.87368,39.32655,Gaobeidian
张家口市,张家口,2,313,75000,中国-河北省-张家口市,114.884091,40.811901,Zhangjiakou
桥东区,桥东,3,313,75000,中国-河北省-张家口市-桥东区,114.8943,40.78844,Qiaodong
桥西区,桥西,3,313,75061,中国-河北省-张家口市-桥西区,114.86962,40.81945,Qiaoxi
宣化区,宣化,3,313,75100,中国-河北省-张家口市-宣化区,115.06543,40.60957,Xuanhua
下花园区,下花园,3,313,75300,中国-河北省-张家口市-下花园区,115.28744,40.50236,Xiahuayuan
宣化县,宣化,3,313,75100,中国-河北省-张家口市-宣化县,115.15497,40.56618,Xuanhua
张北县,张北,3,313,76450,中国-河北省-张家口市-张北县,114.71432,41.15977,Zhangbei
康保县,康保,3,313,76650,中国-河北省-张家口市-康保县,114.60031,41.85225,Kangbao
沽源县,沽源,3,313,76550,中国-河北省-张家口市-沽源县,115.68859,41.66959,Guyuan
尚义县,尚义,3,313,76750,中国-河北省-张家口市-尚义县,113.97134,41.07782,Shangyi
蔚县,蔚县,3,313,75700,中国-河北省-张家口市-蔚县,114.58892,39.84067,Yuxian
阳原县,阳原,3,313,75800,中国-河北省-张家口市-阳原县,114.15051,40.10361,Yangyuan
怀安县,怀安,3,313,76150,中国-河北省-张家口市-怀安县,114.38559,40.67425,Huai'an
万全县,万全,3,313,76250,中国-河北省-张家口市-万全县,114.7405,40.76694,Wanquan
怀来县,怀来,3,313,75400,中国-河北省-张家口市-怀来县,115.51773,40.41536,Huailai
涿鹿县,涿鹿,3,313,75600,中国-河北省-张家口市-涿鹿县,115.22403,40.37636,Zhuolu
赤城县,赤城,3,313,75500,中国-河北省-张家口市-赤城县,115.83187,40.91438,Chicheng
崇礼县,崇礼,3,313,76350,中国-河北省-张家口市-崇礼县,115.27993,40.97519,Chongli
承德市,承德,2,314,67000,中国-河北省-承德市,117.939152,40.976204,Chengde
双桥区,双桥,3,314,67000,中国-河北省-承德市-双桥区,117.9432,40.97466,Shuangqiao
双滦区,双滦,3,314,67001,中国-河北省-承德市-双滦区,117.74487,40.95375,Shuangluan
鹰手营子矿区,鹰手营子矿区,3,314,67200,中国-河北省-承德市-鹰手营子矿区,117.65985,40.54744,Yingshouyingzikuangqu
承德县,承德,3,314,67400,中国-河北省-承德市-承德县,118.17639,40.76985,Chengde
兴隆县,兴隆,3,314,67300,中国-河北省-承德市-兴隆县,117.50073,40.41709,Xinglong
平泉县,平泉,3,314,67500,中国-河北省-承德市-平泉县,118.70196,41.01839,Pingquan
滦平县,滦平,3,314,68250,中国-河北省-承德市-滦平县,117.33276,40.94148,Luanping
隆化县,隆化,3,314,68150,中国-河北省-承德市-隆化县,117.7297,41.31412,Longhua
丰宁满族自治县,丰宁,3,314,68350,中国-河北省-承德市-丰宁满族自治县,116.6492,41.20481,Fengning
宽城满族自治县,宽城,3,314,67600,中国-河北省-承德市-宽城满族自治县,118.49176,40.60829,Kuancheng
围场满族蒙古族自治县,围场,3,314,68450,中国-河北省-承德市-围场满族蒙古族自治县,117.7601,41.94368,Weichang
沧州市,沧州,2,317,61001,中国-河北省-沧州市,116.857461,38.310582,Cangzhou
新华区,新华,3,317,61000,中国-河北省-沧州市-新华区,116.86643,38.31438,Xinhua
运河区,运河,3,317,61001,中国-河北省-沧州市-运河区,116.85706,38.31352,Yunhe
沧县,沧县,3,317,61000,中国-河北省-沧州市-沧县,116.87817,38.29361,Cangxian
青县,青县,3,317,62650,中国-河北省-沧州市-青县,116.80316,38.58345,Qingxian
东光县,东光,3,317,61600,中国-河北省-沧州市-东光县,116.53668,37.8857,Dongguang
海兴县,海兴,3,317,61200,中国-河北省-沧州市-海兴县,117.49758,38.13958,Haixing
盐山县,盐山,3,317,61300,中国-河北省-沧州市-盐山县,117.23092,38.05647,Yanshan
肃宁县,肃宁,3,317,62350,中国-河北省-沧州市-肃宁县,115.82971,38.42272,Suning
南皮县,南皮,3,317,61500,中国-河北省-沧州市-南皮县,116.70224,38.04109,Nanpi
吴桥县,吴桥,3,317,61800,中国-河北省-沧州市-吴桥县,116.3847,37.62546,Wuqiao
献县,献县,3,317,62250,中国-河北省-沧州市-献县,116.12695,38.19228,Xianxian
孟村回族自治县,孟村,3,317,61400,中国-河北省-沧州市-孟村回族自治县,117.10412,38.05338,Mengcun
泊头市,泊头,3,317,62150,中国-河北省-沧州市-泊头市,116.57824,38.08359,Botou
任丘市,任丘,3,317,62550,中国-河北省-沧州市-任丘市,116.1033,38.71124,Renqiu
黄骅市,黄骅,3,317,61100,中国-河北省-沧州市-黄骅市,117.33883,38.3706,Huanghua
河间市,河间,3,317,62450,中国-河北省-沧州市-河间市,116.0993,38.44549,Hejian
廊坊市,廊坊,2,316,65000,中国-河北省-廊坊市,116.713873,39.529244,Langfang
安次区,安次,3,316,65000,中国-河北省-廊坊市-安次区,116.70308,39.52057,Anci
广阳区,广阳,3,316,65000,中国-河北省-廊坊市-广阳区,116.71069,39.52278,Guangyang
固安县,固安,3,316,65500,中国-河北省-廊坊市-固安县,116.29916,39.43833,Gu'an
永清县,永清,3,316,65600,中国-河北省-廊坊市-永清县,116.50091,39.32069,Yongqing
香河县,香河,3,316,65400,中国-河北省-廊坊市-香河县,117.00634,39.76133,Xianghe
大城县,大城,3,316,65900,中国-河北省-廊坊市-大城县,116.65353,38.70534,Daicheng
文安县,文安,3,316,65800,中国-河北省-廊坊市-文安县,116.45846,38.87325,Wen'an
大厂回族自治县,大厂,3,316,65300,中国-河北省-廊坊市-大厂回族自治县,116.98916,39.88649,Dachang
霸州市,霸州,3,316,65700,中国-河北省-廊坊市-霸州市,116.39154,39.12569,Bazhou
三河市,三河,3,316,65200,中国-河北省-廊坊市-三河市,117.07229,39.98358,Sanhe
衡水市,衡水,2,318,53000,中国-河北省-衡水市,115.665993,37.735097,Hengshui
桃城区,桃城,3,318,53000,中国-河北省-衡水市-桃城区,115.67529,37.73499,Taocheng
枣强县,枣强,3,318,53100,中国-河北省-衡水市-枣强县,115.72576,37.51027,Zaoqiang
武邑县,武邑,3,318,53400,中国-河北省-衡水市-武邑县,115.88748,37.80181,Wuyi
武强县,武强,3,318,53300,中国-河北省-衡水市-武强县,115.98226,38.04138,Wuqiang
饶阳县,饶阳,3,318,53900,中国-河北省-衡水市-饶阳县,115.72558,38.23529,Raoyang
安平县,安平,3,318,53600,中国-河北省-衡水市-安平县,115.51876,38.23388,Anping
故城县,故城,3,318,53800,中国-河北省-衡水市-故城县,115.97076,37.34773,Gucheng
景县,景县,3,318,53500,中国-河北省-衡水市-景县,116.26904,37.6926,Jingxian
阜城县,阜城,3,318,53700,中国-河北省-衡水市-阜城县,116.14431,37.86881,Fucheng
冀州市,冀州,3,318,53200,中国-河北省-衡水市-冀州市,115.57934,37.55082,Jizhou
深州市,深州,3,318,53800,中国-河北省-衡水市-深州市,115.55993,38.00109,Shenzhou
山西省,山西,1,,,中国-山西省,112.549248,37.857014,Shanxi
太原市,太原,2,351,30082,中国-山西省-太原市,112.549248,37.857014,Taiyuan
小店区,小店,3,351,30032,中国-山西省-太原市-小店区,112.56878,37.73565,Xiaodian
迎泽区,迎泽,3,351,30002,中国-山西省-太原市-迎泽区,112.56338,37.86326,Yingze
杏花岭区,杏花岭,3,351,30009,中国-山西省-太原市-杏花岭区,112.56237,37.88429,Xinghualing
尖草坪区,尖草坪,3,351,30023,中国-山西省-太原市-尖草坪区,112.48709,37.94193,Jiancaoping
万柏林区,万柏林,3,351,30024,中国-山西省-太原市-万柏林区,112.51553,37.85923,Wanbailin
晋源区,晋源,3,351,30025,中国-山西省-太原市-晋源区,112.47985,37.72479,Jinyuan
清徐县,清徐,3,351,30400,中国-山西省-太原市-清徐县,112.35888,37.60758,Qingxu
阳曲县,阳曲,3,351,30100,中国-山西省-太原市-阳曲县,112.67861,38.05989,Yangqu
娄烦县,娄烦,3,351,30300,中国-山西省-太原市-娄烦县,111.79473,38.06689,Loufan
古交市,古交,3,351,30200,中国-山西省-太原市-古交市,112.16918,37.90983,Gujiao
大同市,大同,2,352,37008,中国-山西省-大同市,113.295259,40.09031,Datong
城区,城区,3,352,37008,中国-山西省-大同市-城区,113.298,40.07566,Chengqu
矿区,矿区,3,352,37003,中国-山西省-大同市-矿区,113.1772,40.03685,Kuangqu
南郊区,南郊,3,352,37001,中国-山西省-大同市-南郊区,113.14947,40.00539,Nanjiao
新荣区,新荣,3,352,37002,中国-山西省-大同市-新荣区,113.13504,40.25618,Xinrong
阳高县,阳高,3,352,38100,中国-山西省-大同市-阳高县,113.75012,40.36256,Yanggao
天镇县,天镇,3,352,38200,中国-山西省-大同市-天镇县,114.0931,40.42299,Tianzhen
广灵县,广灵,3,352,37500,中国-山西省-大同市-广灵县,114.28204,39.76082,Guangling
灵丘县,灵丘,3,352,34400,中国-山西省-大同市-灵丘县,114.23672,39.44043,Lingqiu
浑源县,浑源,3,352,37400,中国-山西省-大同市-浑源县,113.69552,39.69962,Hunyuan
左云县,左云,3,352,37100,中国-山西省-大同市-左云县,112.70266,40.01336,Zuoyun
大同县,大同,3,352,37300,中国-山西省-大同市-大同县,113.61212,40.04012,Datong
阳泉市,阳泉,2,353,45000,中国-山西省-阳泉市,113.583285,37.861188,Yangquan
城区,城区,3,353,45000,中国-山西省-阳泉市-城区,113.60069,37.8474,Chengqu
矿区,矿区,3,353,45000,中国-山西省-阳泉市-矿区,113.55677,37.86895,Kuangqu
郊区,郊区,3,353,45011,中国-山西省-阳泉市-郊区,113.58539,37.94139,Jiaoqu
平定县,平定,3,353,45200,中国-山西省-阳泉市-平定县,113.65789,37.78601,Pingding
盂县,盂县,3,353,45100,中国-山西省-阳泉市-盂县,113.41235,38.08579,Yuxian
长治市,长治,2,355,46000,中国-山西省-长治市,113.113556,36.191112,Changzhi
城区,城区,3,355,46011,中国-山西省-长治市-城区,113.12308,36.20351,Chengqu
郊区,郊区,3,355,46011,中国-山西省-长治市-郊区,113.12653,36.19918,Jiaoqu
长治县,长治,3,355,47100,中国-山西省-长治市-长治县,113.04791,36.04722,Changzhi
襄垣县,襄垣,3,355,46200,中国-山西省-长治市-襄垣县,113.05157,36.53527,Xiangyuan
屯留县,屯留,3,355,46100,中国-山西省-长治市-屯留县,112.89196,36.31579,Tunliu
平顺县,平顺,3,355,47400,中国-山西省-长治市-平顺县,113.43603,36.20005,Pingshun
黎城县,黎城,3,355,47600,中国-山西省-长治市-黎城县,113.38766,36.50301,Licheng
壶关县,壶关,3,355,47300,中国-山西省-长治市-壶关县,113.207,36.11301,Huguan
长子县,长子,3,355,46600,中国-山西省-长治市-长子县,112.87731,36.12125,Zhangzi
武乡县,武乡,3,355,46300,中国-山西省-长治市-武乡县,112.86343,36.83687,Wuxiang
沁县,沁县,3,355,46400,中国-山西省-长治市-沁县,112.69863,36.75628,Qinxian
沁源县,沁源,3,355,46500,中国-山西省-长治市-沁源县,112.33758,36.50008,Qinyuan
潞城市,潞城,3,355,47500,中国-山西省-长治市-潞城市,113.22888,36.33414,Lucheng
晋城市,晋城,2,356,48000,中国-山西省-晋城市,112.851274,35.497553,Jincheng
城区,城区,3,356,48000,中国-山西省-晋城市-城区,112.85319,35.50175,Chengqu
沁水县,沁水,3,356,48200,中国-山西省-晋城市-沁水县,112.1871,35.69102,Qinshui
阳城县,阳城,3,356,48100,中国-山西省-晋城市-阳城县,112.41485,35.48614,Yangcheng
陵川县,陵川,3,356,48300,中国-山西省-晋城市-陵川县,113.2806,35.77532,Lingchuan
泽州县,泽州,3,356,48012,中国-山西省-晋城市-泽州县,112.83947,35.50789,Zezhou
高平市,高平,3,356,48400,中国-山西省-晋城市-高平市,112.92288,35.79705,Gaoping
朔州市,朔州,2,349,38500,中国-山西省-朔州市,112.433387,39.331261,Shuozhou
朔城区,朔城,3,349,36000,中国-山西省-朔州市-朔城区,112.43189,39.31982,Shuocheng
平鲁区,平鲁,3,349,38600,中国-山西省-朔州市-平鲁区,112.28833,39.51155,Pinglu
山阴县,山阴,3,349,36900,中国-山西省-朔州市-山阴县,112.81662,39.52697,Shanyin
应县,应县,3,349,37600,中国-山西省-朔州市-应县,113.19052,39.55279,Yingxian
右玉县,右玉,3,349,37200,中国-山西省-朔州市-右玉县,112.46902,39.99011,Youyu
怀仁县,怀仁,3,349,38300,中国-山西省-朔州市-怀仁县,113.10009,39.82806,Huairen
晋中市,晋中,2,354,30600,中国-山西省-晋中市,112.736465,37.696495,Jinzhong
榆次区,榆次,3,354,30600,中国-山西省-晋中市-榆次区,112.70788,37.6978,Yuci
榆社县,榆社,3,354,31800,中国-山西省-晋中市-榆社县,112.97558,37.0721,Yushe
左权县,左权,3,354,32600,中国-山西省-晋中市-左权县,113.37918,37.08235,Zuoquan
和顺县,和顺,3,354,32700,中国-山西省-晋中市-和顺县,113.56988,37.32963,Heshun
昔阳县,昔阳,3,354,45300,中国-山西省-晋中市-昔阳县,113.70517,37.61863,Xiyang
寿阳县,寿阳,3,354,45400,中国-山西省-晋中市-寿阳县,113.17495,37.88899,Shouyang
太谷县,太谷,3,354,30800,中国-山西省-晋中市-太谷县,112.55246,37.42161,Taigu
祁县,祁县,3,354,30900,中国-山西省-晋中市-祁县,112.33358,37.3579,Qixian
平遥县,平遥,3,354,31100,中国-山西省-晋中市-平遥县,112.17553,37.1892,Pingyao
灵石县,灵石,3,354,31300,中国-山西省-晋中市-灵石县,111.7774,36.84814,Lingshi
介休市,介休,3,354,32000,中国-山西省-晋中市-介休市,111.91824,37.02771,Jiexiu
运城市,运城,2,359,44000,中国-山西省-运城市,111.003957,35.022778,Yuncheng
盐湖区,盐湖,3,359,44000,中国-山西省-运城市-盐湖区,110.99827,35.0151,Yanhu
临猗县,临猗,3,359,44100,中国-山西省-运城市-临猗县,110.77432,35.14455,Linyi
万荣县,万荣,3,359,44200,中国-山西省-运城市-万荣县,110.83657,35.41556,Wanrong
闻喜县,闻喜,3,359,43800,中国-山西省-运城市-闻喜县,111.22265,35.35553,Wenxi
稷山县,稷山,3,359,43200,中国-山西省-运城市-稷山县,110.97924,35.59993,Jishan
新绛县,新绛,3,359,43100,中国-山西省-运城市-新绛县,111.22509,35.61566,Xinjiang
绛县,绛县,3,359,43600,中国-山西省-运城市-绛县,111.56668,35.49096,Jiangxian
垣曲县,垣曲,3,359,43700,中国-山西省-运城市-垣曲县,111.67166,35.29923,Yuanqu
夏县,夏县,3,359,44400,中国-山西省-运城市-夏县,111.21966,35.14121,Xiaxian
平陆县,平陆,3,359,44300,中国-山西省-运城市-平陆县,111.21704,34.83772,Pinglu
芮城县,芮城,3,359,44600,中国-山西省-运城市-芮城县,110.69455,34.69384,Ruicheng
永济市,永济,3,359,44500,中国-山西省-运城市-永济市,110.44537,34.86556,Yongji
河津市,河津,3,359,43300,中国-山西省-运城市-河津市,110.7116,35.59478,Hejin
忻州市,忻州,2,350,34000,中国-山西省-忻州市,112.733538,38.41769,Xinzhou
忻府区,忻府,3,350,34000,中国-山西省-忻州市-忻府区,112.74603,38.40414,Xinfu
定襄县,定襄,3,350,35400,中国-山西省-忻州市-定襄县,112.95733,38.47387,Dingxiang
五台县,五台,3,350,35500,中国-山西省-忻州市-五台县,113.25256,38.72774,Wutai
代县,代县,3,350,34200,中国-山西省-忻州市-代县,112.95913,39.06717,Daixian
繁峙县,繁峙,3,350,34300,中国-山西省-忻州市-繁峙县,113.26303,39.18886,Fanshi
宁武县,宁武,3,350,36700,中国-山西省-忻州市-宁武县,112.30423,39.00211,Ningwu
静乐县,静乐,3,350,35100,中国-山西省-忻州市-静乐县,111.94158,38.3602,Jingle
神池县,神池,3,350,36100,中国-山西省-忻州市-神池县,112.20541,39.09,Shenchi
五寨县,五寨,3,350,36200,中国-山西省-忻州市-五寨县,111.8489,38.90757,Wuzhai
岢岚县,岢岚,3,350,36300,中国-山西省-忻州市-岢岚县,111.57388,38.70452,Kelan
河曲县,河曲,3,350,36500,中国-山西省-忻州市-河曲县,111.13821,39.38439,Hequ
保德县,保德,3,350,36600,中国-山西省-忻州市-保德县,111.08656,39.02248,Baode
偏关县,偏关,3,350,36400,中国-山西省-忻州市-偏关县,111.50863,39.43609,Pianguan
原平市,原平,3,350,34100,中国-山西省-忻州市-原平市,112.70584,38.73181,Yuanping
临汾市,临汾,2,357,41000,中国-山西省-临汾市,111.517973,36.08415,Linfen
尧都区,尧都,3,357,41000,中国-山西省-临汾市-尧都区,111.5787,36.08298,Yaodu
曲沃县,曲沃,3,357,43400,中国-山西省-临汾市-曲沃县,111.47525,35.64119,Quwo
翼城县,翼城,3,357,43500,中国-山西省-临汾市-翼城县,111.7181,35.73881,Yicheng
襄汾县,襄汾,3,357,41500,中国-山西省-临汾市-襄汾县,111.44204,35.87711,Xiangfen
洪洞县,洪洞,3,357,41600,中国-山西省-临汾市-洪洞县,111.67501,36.25425,Hongtong
古县,古县,3,357,42400,中国-山西省-临汾市-古县,111.92041,36.26688,Guxian
安泽县,安泽,3,357,42500,中国-山西省-临汾市-安泽县,112.24981,36.14803,Anze
浮山县,浮山,3,357,42600,中国-山西省-临汾市-浮山县,111.84744,35.96854,Fushan
吉县,吉县,3,357,42200,中国-山西省-临汾市-吉县,110.68148,36.09873,Jixian
乡宁县,乡宁,3,357,42100,中国-山西省-临汾市-乡宁县,110.84652,35.97072,Xiangning
大宁县,大宁,3,357,42300,中国-山西省-临汾市-大宁县,110.75216,36.46624,Daning
隰县,隰县,3,357,41300,中国-山西省-临汾市-隰县,110.93881,36.69258,Xixian
永和县,永和,3,357,41400,中国-山西省-临汾市-永和县,110.63168,36.7584,Yonghe
蒲县,蒲县,3,357,41200,中国-山西省-临汾市-蒲县,111.09674,36.41243,Puxian
汾西县,汾西,3,357,31500,中国-山西省-临汾市-汾西县,111.56811,36.65063,Fenxi
侯马市,侯马,3,357,43000,中国-山西省-临汾市-侯马市,111.37207,35.61903,Houma
霍州市,霍州,3,357,31400,中国-山西省-临汾市-霍州市,111.755,36.5638,Huozhou
吕梁市,吕梁,2,358,33000,中国-山西省-吕梁市,111.134335,37.524366,Lvliang
离石区,离石,3,358,33000,中国-山西省-吕梁市-离石区,111.15059,37.5177,Lishi
文水县,文水,3,358,32100,中国-山西省-吕梁市-文水县,112.02829,37.43841,Wenshui
交城县,交城,3,358,30500,中国-山西省-吕梁市-交城县,112.1585,37.5512,Jiaocheng
兴县,兴县,3,358,33600,中国-山西省-吕梁市-兴县,111.12692,38.46321,Xingxian
临县,临县,3,358,33200,中国-山西省-吕梁市-临县,110.99282,37.95271,Linxian
柳林县,柳林,3,358,33300,中国-山西省-吕梁市-柳林县,110.88922,37.42932,Liulin
石楼县,石楼,3,358,32500,中国-山西省-吕梁市-石楼县,110.8352,36.99731,Shilou
岚县,岚县,3,358,33500,中国-山西省-吕梁市-岚县,111.67627,38.27874,Lanxian
方山县,方山,3,358,33100,中国-山西省-吕梁市-方山县,111.24011,37.88979,Fangshan
中阳县,中阳,3,358,33400,中国-山西省-吕梁市-中阳县,111.1795,37.35715,Zhongyang
交口县,交口,3,358,32400,中国-山西省-吕梁市-交口县,111.18103,36.98213,Jiaokou
孝义市,孝义,3,358,32300,中国-山西省-吕梁市-孝义市,111.77362,37.14414,Xiaoyi
汾阳市,汾阳,3,358,32200,中国-山西省-吕梁市-汾阳市,111.7882,37.26605,Fenyang
内蒙古自治区,内蒙古,1,,,中国-内蒙古自治区,111.670801,40.818311,Inner Mongolia
呼和浩特市,呼和浩特,2,471,10000,中国-内蒙古自治区-呼和浩特市,111.670801,40.818311,Hohhot
新城区,新城,3,471,10050,中国-内蒙古自治区-呼和浩特市-新城区,111.66554,40.85828,Xincheng
回民区,回民,3,471,10030,中国-内蒙古自治区-呼和浩特市-回民区,111.62402,40.80827,Huimin
玉泉区,玉泉,3,471,10020,中国-内蒙古自治区-呼和浩特市-玉泉区,111.67456,40.75227,Yuquan
赛罕区,赛罕,3,471,10020,中国-内蒙古自治区-呼和浩特市-赛罕区,111.70224,40.79207,Saihan
土默特左旗,土默特左旗,3,471,10100,中国-内蒙古自治区-呼和浩特市-土默特左旗,111.14898,40.72229,Tumotezuoqi
托克托县,托克托,3,471,10200,中国-内蒙古自治区-呼和浩特市-托克托县,111.19101,40.27492,Tuoketuo
和林格尔县,和林格尔,3,471,11500,中国-内蒙古自治区-呼和浩特市-和林格尔县,111.82205,40.37892,Helingeer
清水河县,清水河,3,471,11600,中国-内蒙古自治区-呼和浩特市-清水河县,111.68316,39.9097,Qingshuihe
武川县,武川,3,471,11700,中国-内蒙古自治区-呼和浩特市-武川县,111.45785,41.09289,Wuchuan
包头市,包头,2,472,14025,中国-内蒙古自治区-包头市,109.840405,40.658168,Baotou
东河区,东河,3,472,14040,中国-内蒙古自治区-包头市-东河区,110.0462,40.58237,Donghe
昆都仑区,昆都仑,3,472,14010,中国-内蒙古自治区-包头市-昆都仑区,109.83862,40.64175,Kundulun
青山区,青山,3,472,14030,中国-内蒙古自治区-包头市-青山区,109.90131,40.64329,Qingshan
石拐区,石拐,3,472,14070,中国-内蒙古自治区-包头市-石拐区,110.27322,40.67297,Shiguai
白云鄂博矿区,白云鄂博矿区,3,472,14080,中国-内蒙古自治区-包头市-白云鄂博矿区,109.97367,41.76968,Baiyunebokuangqu
九原区,九原,3,472,14060,中国-内蒙古自治区-包头市-九原区,109.96496,40.60554,Jiuyuan
土默特右旗,土默特右旗,3,472,14100,中国-内蒙古自治区-包头市-土默特右旗,110.52417,40.5688,Tumoteyouqi
固阳县,固阳,3,472,14200,中国-内蒙古自治区-包头市-固阳县,110.06372,41.01851,Guyang
达尔罕茂明安联合旗,达茂旗,3,472,14500,中国-内蒙古自治区-包头市-达尔罕茂明安联合旗,110.43258,41.69875,Damaoqi
乌海市,乌海,2,473,16000,中国-内蒙古自治区-乌海市,106.825563,39.673734,Wuhai
海勃湾区,海勃湾,3,473,16000,中国-内蒙古自治区-乌海市-海勃湾区,106.8222,39.66955,Haibowan
海南区,海南,3,473,16030,中国-内蒙古自治区-乌海市-海南区,106.88656,39.44128,Hainan
乌达区,乌达,3,473,16040,中国-内蒙古自治区-乌海市-乌达区,106.72723,39.505,Wuda
赤峰市,赤峰,2,476,24000,中国-内蒙古自治区-赤峰市,118.956806,42.275317,Chifeng
红山区,红山,3,476,24020,中国-内蒙古自治区-赤峰市-红山区,118.95755,42.24312,Hongshan
元宝山区,元宝山,3,476,24076,中国-内蒙古自治区-赤峰市-元宝山区,119.28921,42.04005,Yuanbaoshan
松山区,松山,3,476,24005,中国-内蒙古自治区-赤峰市-松山区,118.9328,42.28613,Songshan
阿鲁科尔沁旗,阿鲁科尔沁旗,3,476,25550,中国-内蒙古自治区-赤峰市-阿鲁科尔沁旗,120.06527,43.87988,Alukeerqinqi
巴林左旗,巴林左旗,3,476,25450,中国-内蒙古自治区-赤峰市-巴林左旗,119.38012,43.97031,Balinzuoqi
巴林右旗,巴林右旗,3,476,25150,中国-内蒙古自治区-赤峰市-巴林右旗,118.66461,43.53387,Balinyouqi
林西县,林西,3,476,25250,中国-内蒙古自治区-赤峰市-林西县,118.04733,43.61165,Linxi
克什克腾旗,克什克腾旗,3,476,25350,中国-内蒙古自治区-赤峰市-克什克腾旗,117.54562,43.26501,Keshiketengqi
翁牛特旗,翁牛特旗,3,476,24500,中国-内蒙古自治区-赤峰市-翁牛特旗,119.03042,42.93147,Wengniuteqi
喀喇沁旗,喀喇沁旗,3,476,24400,中国-内蒙古自治区-赤峰市-喀喇沁旗,118.70144,41.92917,Kalaqinqi
宁城县,宁城,3,476,24200,中国-内蒙古自治区-赤峰市-宁城县,119.34375,41.59661,Ningcheng
敖汉旗,敖汉旗,3,476,24300,中国-内蒙古自治区-赤峰市-敖汉旗,119.92163,42.29071,Aohanqi
通辽市,通辽,2,475,28000,中国-内蒙古自治区-通辽市,122.263119,43.617429,Tongliao
科尔沁区,科尔沁,3,475,28000,中国-内蒙古自治区-通辽市-科尔沁区,122.25573,43.62257,Keerqin
科尔沁左翼中旗,科尔沁左翼中旗,3,475,29300,中国-内蒙古自治区-通辽市-科尔沁左翼中旗,123.31912,44.13014,Keerqinzuoyizhongqi
科尔沁左翼后旗,科尔沁左翼后旗,3,475,28100,中国-内蒙古自治区-通辽市-科尔沁左翼后旗,122.35745,42.94897,Keerqinzuoyihouqi
开鲁县,开鲁,3,475,28400,中国-内蒙古自治区-通辽市-开鲁县,121.31884,43.60003,Kailu
库伦旗,库伦旗,3,475,28200,中国-内蒙古自治区-通辽市-库伦旗,121.776,42.72998,Kulunqi
奈曼旗,奈曼旗,3,475,28300,中国-内蒙古自治区-通辽市-奈曼旗,120.66348,42.84527,Naimanqi
扎鲁特旗,扎鲁特旗,3,475,29100,中国-内蒙古自治区-通辽市-扎鲁特旗,120.91507,44.55592,Zhaluteqi
霍林郭勒市,霍林郭勒,3,475,29200,中国-内蒙古自治区-通辽市-霍林郭勒市,119.65429,45.53454,Huolinguole
鄂尔多斯市,鄂尔多斯,2,477,17004,中国-内蒙古自治区-鄂尔多斯市,109.99029,39.817179,Ordos
东胜区,东胜,3,477,17000,中国-内蒙古自治区-鄂尔多斯市-东胜区,109.96289,39.82236,Dongsheng
达拉特旗,达拉特旗,3,477,14300,中国-内蒙古自治区-鄂尔多斯市-达拉特旗,110.03317,40.4001,Dalateqi
准格尔旗,准格尔旗,3,477,17100,中国-内蒙古自治区-鄂尔多斯市-准格尔旗,111.23645,39.86783,Zhungeerqi
鄂托克前旗,鄂托克前旗,3,477,16200,中国-内蒙古自治区-鄂尔多斯市-鄂托克前旗,107.48403,38.18396,Etuokeqianqi
鄂托克旗,鄂托克旗,3,477,16100,中国-内蒙古自治区-鄂尔多斯市-鄂托克旗,107.98226,39.09456,Etuokeqi
杭锦旗,杭锦旗,3,477,17400,中国-内蒙古自治区-鄂尔多斯市-杭锦旗,108.72934,39.84023,Hangjinqi
乌审旗,乌审旗,3,477,17300,中国-内蒙古自治区-鄂尔多斯市-乌审旗,108.8461,38.59092,Wushenqi
伊金霍洛旗,伊金霍洛旗,3,477,17200,中国-内蒙古自治区-鄂尔多斯市-伊金霍洛旗,109.74908,39.57393,Yijinhuoluoqi
呼伦贝尔市,呼伦贝尔,2,470,21008,中国-内蒙古自治区-呼伦贝尔市,119.758168,49.215333,Hulunber
海拉尔区,海拉尔,3,470,21000,中国-内蒙古自治区-呼伦贝尔市-海拉尔区,119.7364,49.2122,Hailaer
扎赉诺尔区,扎赉诺尔,3,470,21410,中国-内蒙古自治区-呼伦贝尔市-扎赉诺尔区,117.792702,49.486943,Zhalainuoer
阿荣旗,阿荣旗,3,470,162750,中国-内蒙古自治区-呼伦贝尔市-阿荣旗,123.45941,48.12581,Arongqi
莫力达瓦达斡尔族自治旗,莫旗,3,470,162850,中国-内蒙古自治区-呼伦贝尔市-莫力达瓦达斡尔族自治旗,124.51498,48.48055,Moqi
鄂伦春自治旗,鄂伦春,3,470,165450,中国-内蒙古自治区-呼伦贝尔市-鄂伦春自治旗,123.72604,50.59777,Elunchun
鄂温克族自治旗,鄂温,3,470,21100,中国-内蒙古自治区-呼伦贝尔市-鄂温克族自治旗,119.7565,49.14284,Ewen
陈巴尔虎旗,陈巴尔虎旗,3,470,21500,中国-内蒙古自治区-呼伦贝尔市-陈巴尔虎旗,119.42434,49.32684,Chenbaerhuqi
新巴尔虎左旗,新巴尔虎左旗,3,470,21200,中国-内蒙古自治区-呼伦贝尔市-新巴尔虎左旗,118.26989,48.21842,Xinbaerhuzuoqi
新巴尔虎右旗,新巴尔虎右旗,3,470,21300,中国-内蒙古自治区-呼伦贝尔市-新巴尔虎右旗,116.82366,48.66473,Xinbaerhuyouqi
满洲里市,满洲里,3,470,21400,中国-内蒙古自治区-呼伦贝尔市-满洲里市,117.47946,49.58272,Manzhouli
牙克石市,牙克石,3,470,22150,中国-内蒙古自治区-呼伦贝尔市-牙克石市,120.7117,49.2856,Yakeshi
扎兰屯市,扎兰屯,3,470,162650,中国-内蒙古自治区-呼伦贝尔市-扎兰屯市,122.73757,48.01363,Zhalantun
额尔古纳市,额尔古纳,3,470,22250,中国-内蒙古自治区-呼伦贝尔市-额尔古纳市,120.19094,50.24249,Eerguna
根河市,根河,3,470,22350,中国-内蒙古自治区-呼伦贝尔市-根河市,121.52197,50.77996,Genhe
巴彦淖尔市,巴彦淖尔,2,478,15001,中国-内蒙古自治区-巴彦淖尔市,107.416959,40.757402,Bayan Nur
临河区,临河,3,478,15001,中国-内蒙古自治区-巴彦淖尔市-临河区,107.42668,40.75827,Linhe
五原县,五原,3,478,15100,中国-内蒙古自治区-巴彦淖尔市-五原县,108.26916,41.09631,Wuyuan
磴口县,磴口,3,478,15200,中国-内蒙古自治区-巴彦淖尔市-磴口县,107.00936,40.33062,Dengkou
乌拉特前旗,乌拉特前旗,3,478,14400,中国-内蒙古自治区-巴彦淖尔市-乌拉特前旗,108.65219,40.73649,Wulateqianqi
乌拉特中旗,乌拉特中旗,3,478,15300,中国-内蒙古自治区-巴彦淖尔市-乌拉特中旗,108.52587,41.56789,Wulatezhongqi
乌拉特后旗,乌拉特后旗,3,478,15500,中国-内蒙古自治区-巴彦淖尔市-乌拉特后旗,106.98971,41.43151,Wulatehouqi
杭锦后旗,杭锦后旗,3,478,15400,中国-内蒙古自治区-巴彦淖尔市-杭锦后旗,107.15133,40.88627,Hangjinhouqi
乌兰察布市,乌兰察布,2,474,12000,中国-内蒙古自治区-乌兰察布市,113.114543,41.034126,Ulanqab
集宁区,集宁,3,474,12000,中国-内蒙古自治区-乌兰察布市-集宁区,113.11452,41.0353,Jining
卓资县,卓资,3,474,12300,中国-内蒙古自治区-乌兰察布市-卓资县,112.57757,40.89414,Zhuozi
化德县,化德,3,474,13350,中国-内蒙古自治区-乌兰察布市-化德县,114.01071,41.90433,Huade
商都县,商都,3,474,13450,中国-内蒙古自治区-乌兰察布市-商都县,113.57772,41.56213,Shangdu
兴和县,兴和,3,474,13650,中国-内蒙古自治区-乌兰察布市-兴和县,113.83395,40.87186,Xinghe
凉城县,凉城,3,474,13750,中国-内蒙古自治区-乌兰察布市-凉城县,112.49569,40.53346,Liangcheng
察哈尔右翼前旗,察右前旗,3,474,12200,中国-内蒙古自治区-乌兰察布市-察哈尔右翼前旗,113.22131,40.7788,Chayouqianqi
察哈尔右翼中旗,察右中旗,3,474,13550,中国-内蒙古自治区-乌兰察布市-察哈尔右翼中旗,112.63537,41.27742,Chayouzhongqi
察哈尔右翼后旗,察右后旗,3,474,12400,中国-内蒙古自治区-乌兰察布市-察哈尔右翼后旗,113.19216,41.43554,Chayouhouqi
四子王旗,四子王旗,3,474,11800,中国-内蒙古自治区-乌兰察布市-四子王旗,111.70654,41.53312,Siziwangqi
丰镇市,丰镇,3,474,12100,中国-内蒙古自治区-乌兰察布市-丰镇市,113.10983,40.4369,Fengzhen
兴安盟,兴安盟,2,482,137401,中国-内蒙古自治区-兴安盟,122.070317,46.076268,Hinggan
乌兰浩特市,乌兰浩特,3,482,137401,中国-内蒙古自治区-兴安盟-乌兰浩特市,122.06378,46.06235,Wulanhaote
阿尔山市,阿尔山,3,482,137800,中国-内蒙古自治区-兴安盟-阿尔山市,119.94317,47.17716,Aershan
科尔沁右翼前旗,科右前旗,3,482,137423,中国-内蒙古自治区-兴安盟-科尔沁右翼前旗,121.95269,46.0795,Keyouqianqi
科尔沁右翼中旗,科右中旗,3,482,29400,中国-内蒙古自治区-兴安盟-科尔沁右翼中旗,121.46807,45.05605,Keyouzhongqi
扎赉特旗,扎赉特旗,3,482,137600,中国-内蒙古自治区-兴安盟-扎赉特旗,122.91229,46.7267,Zhalaiteqi
突泉县,突泉,3,482,137500,中国-内蒙古自治区-兴安盟-突泉县,121.59396,45.38187,Tuquan
锡林郭勒盟,锡林郭勒盟,2,479,26000,中国-内蒙古自治区-锡林郭勒盟,116.090996,43.944018,Xilin Gol
二连浩特市,二连浩特,3,479,11100,中国-内蒙古自治区-锡林郭勒盟-二连浩特市,111.98297,43.65303,Erlianhaote
锡林浩特市,锡林浩特,3,479,26021,中国-内蒙古自治区-锡林郭勒盟-锡林浩特市,116.08603,43.93341,Xilinhaote
阿巴嘎旗,阿巴嘎旗,3,479,11400,中国-内蒙古自治区-锡林郭勒盟-阿巴嘎旗,114.96826,44.02174,Abagaqi
苏尼特左旗,苏尼特左旗,3,479,11300,中国-内蒙古自治区-锡林郭勒盟-苏尼特左旗,113.6506,43.85687,Sunitezuoqi
苏尼特右旗,苏尼特右旗,3,479,11200,中国-内蒙古自治区-锡林郭勒盟-苏尼特右旗,112.65741,42.7469,Suniteyouqi
东乌珠穆沁旗,东乌旗,3,479,26300,中国-内蒙古自治区-锡林郭勒盟-东乌珠穆沁旗,116.97293,45.51108,Dongwuqi
西乌珠穆沁旗,西乌旗,3,479,26200,中国-内蒙古自治区-锡林郭勒盟-西乌珠穆沁旗,117.60983,44.59623,Xiwuqi
太仆寺旗,太仆寺旗,3,479,27000,中国-内蒙古自治区-锡林郭勒盟-太仆寺旗,115.28302,41.87727,Taipusiqi
镶黄旗,镶黄旗,3,479,13250,中国-内蒙古自治区-锡林郭勒盟-镶黄旗,113.84472,42.23927,Xianghuangqi
正镶白旗,正镶白旗,3,479,13800,中国-内蒙古自治区-锡林郭勒盟-正镶白旗,115.00067,42.30712,Zhengxiangbaiqi
正蓝旗,正蓝旗,3,479,27200,中国-内蒙古自治区-锡林郭勒盟-正蓝旗,116.00363,42.25229,Zhenglanqi
多伦县,多伦,3,479,27300,中国-内蒙古自治区-锡林郭勒盟-多伦县,116.48565,42.203,Duolun
阿拉善盟,阿拉善盟,2,483,750306,中国-内蒙古自治区-阿拉善盟,105.706422,38.844814,Alxa
阿拉善左旗,阿拉善左旗,3,483,750306,中国-内蒙古自治区-阿拉善盟-阿拉善左旗,105.67532,38.8293,Alashanzuoqi
阿拉善右旗,阿拉善右旗,3,483,737300,中国-内蒙古自治区-阿拉善盟-阿拉善右旗,101.66705,39.21533,Alashanyouqi
额济纳旗,额济纳旗,3,483,735400,中国-内蒙古自治区-阿拉善盟-额济纳旗,101.06887,41.96755,Ejinaqi
辽宁省,辽宁,1,,,中国-辽宁省,123.429096,41.796767,Liaoning
沈阳市,沈阳,2,24,110013,中国-辽宁省-沈阳市,123.429096,41.796767,Shenyang
和平区,和平,3,24,110001,中国-辽宁省-沈阳市-和平区,123.4204,41.78997,Heping
沈河区,沈河,3,24,110011,中国-辽宁省-沈阳市-沈河区,123.45871,41.79625,Shenhe
大东区,大东,3,24,110041,中国-辽宁省-沈阳市-大东区,123.46997,41.80539,Dadong
皇姑区,皇姑,3,24,110031,中国-辽宁省-沈阳市-皇姑区,123.42527,41.82035,Huanggu
铁西区,铁西,3,24,110021,中国-辽宁省-沈阳市-铁西区,123.37675,41.80269,Tiexi
苏家屯区,苏家屯,3,24,110101,中国-辽宁省-沈阳市-苏家屯区,123.34405,41.66475,Sujiatun
浑南区,浑南,3,24,110015,中国-辽宁省-沈阳市-浑南区,123.457707,41.71945,Hunnan
沈北新区,沈北新区,3,24,110121,中国-辽宁省-沈阳市-沈北新区,123.52658,42.05297,Shenbeixinqu
于洪区,于洪,3,24,110141,中国-辽宁省-沈阳市-于洪区,123.30807,41.794,Yuhong
辽中县,辽中,3,24,110200,中国-辽宁省-沈阳市-辽中县,122.72659,41.51302,Liaozhong
康平县,康平,3,24,110500,中国-辽宁省-沈阳市-康平县,123.35446,42.75081,Kangping
法库县,法库,3,24,110400,中国-辽宁省-沈阳市-法库县,123.41214,42.50608,Faku
新民市,新民,3,24,110300,中国-辽宁省-沈阳市-新民市,122.82867,41.99847,Xinmin
大连市,大连,2,411,116011,中国-辽宁省-大连市,121.618622,38.91459,Dalian
中山区,中山,3,411,116001,中国-辽宁省-大连市-中山区,121.64465,38.91859,Zhongshan
西岗区,西岗,3,411,116011,中国-辽宁省-大连市-西岗区,121.61238,38.91469,Xigang
沙河口区,沙河口,3,411,116021,中国-辽宁省-大连市-沙河口区,121.58017,38.90536,Shahekou
甘井子区,甘井子,3,411,116033,中国-辽宁省-大连市-甘井子区,121.56567,38.95017,Ganjingzi
旅顺口区,旅顺口,3,411,116041,中国-辽宁省-大连市-旅顺口区,121.26202,38.85125,Lvshunkou
金州区,金州,3,411,116100,中国-辽宁省-大连市-金州区,121.71893,39.1004,Jinzhou
长海县,长海,3,411,116500,中国-辽宁省-大连市-长海县,122.58859,39.27274,Changhai
瓦房店市,瓦房店,3,411,116300,中国-辽宁省-大连市-瓦房店市,121.98104,39.62843,Wafangdian
普兰店市,普兰店,3,411,116200,中国-辽宁省-大连市-普兰店市,121.96316,39.39465,Pulandian
庄河市,庄河,3,411,116400,中国-辽宁省-大连市-庄河市,122.96725,39.68815,Zhuanghe
鞍山市,鞍山,2,412,114001,中国-辽宁省-鞍山市,122.995632,41.110626,Anshan
铁东区,铁东,3,412,114001,中国-辽宁省-鞍山市-铁东区,122.99085,41.08975,Tiedong
铁西区,铁西,3,413,114013,中国-辽宁省-鞍山市-铁西区,122.96967,41.11977,Tiexi
立山区,立山,3,414,114031,中国-辽宁省-鞍山市-立山区,123.02948,41.15008,Lishan
千山区,千山,3,415,114041,中国-辽宁省-鞍山市-千山区,122.96048,41.07507,Qianshan
台安县,台安,3,417,114100,中国-辽宁省-鞍山市-台安县,122.43585,41.41265,Tai'an
岫岩满族自治县,岫岩,3,418,114300,中国-辽宁省-鞍山市-岫岩满族自治县,123.28875,40.27996,Xiuyan
海城市,海城,3,416,114200,中国-辽宁省-鞍山市-海城市,122.68457,40.88142,Haicheng
抚顺市,抚顺,2,24,113008,中国-辽宁省-抚顺市,123.921109,41.875956,Fushun
新抚区,新抚,3,24,113008,中国-辽宁省-抚顺市-新抚区,123.91264,41.86205,Xinfu
东洲区,东洲,3,24,113003,中国-辽宁省-抚顺市-东洲区,124.03759,41.8519,Dongzhou
望花区,望花,3,24,113001,中国-辽宁省-抚顺市-望花区,123.78283,41.85532,Wanghua
顺城区,顺城,3,24,113006,中国-辽宁省-抚顺市-顺城区,123.94506,41.88321,Shuncheng
抚顺县,抚顺,3,24,113006,中国-辽宁省-抚顺市-抚顺县,124.17755,41.71217,Fushun
新宾满族自治县,新宾,3,24,113200,中国-辽宁省-抚顺市-新宾满族自治县,125.04049,41.73409,Xinbin
清原满族自治县,清原,3,24,113300,中国-辽宁省-抚顺市-清原满族自治县,124.92807,42.10221,Qingyuan
本溪市,本溪,2,414,117000,中国-辽宁省-本溪市,123.770519,41.297909,Benxi
平山区,平山,3,414,117000,中国-辽宁省-本溪市-平山区,123.76892,41.2997,Pingshan
溪湖区,溪湖,3,414,117002,中国-辽宁省-本溪市-溪湖区,123.76764,41.32921,Xihu
明山区,明山,3,414,117021,中国-辽宁省-本溪市-明山区,123.81746,41.30827,Mingshan
南芬区,南芬,3,414,117014,中国-辽宁省-本溪市-南芬区,123.74523,41.1006,Nanfen
本溪满族自治县,本溪,3,414,117100,中国-辽宁省-本溪市-本溪满族自治县,124.12741,41.30059,Benxi
桓仁满族自治县,桓仁,3,414,117200,中国-辽宁省-本溪市-桓仁满族自治县,125.36062,41.26798,Huanren
丹东市,丹东,2,415,118000,中国-辽宁省-丹东市,124.383044,40.124296,Dandong
元宝区,元宝,3,415,118000,中国-辽宁省-丹东市-元宝区,124.39575,40.13651,Yuanbao
振兴区,振兴,3,415,118002,中国-辽宁省-丹东市-振兴区,124.36035,40.10489,Zhenxing
振安区,振安,3,415,118001,中国-辽宁省-丹东市-振安区,124.42816,40.15826,Zhen'an
宽甸满族自治县,宽甸,3,415,118200,中国-辽宁省-丹东市-宽甸满族自治县,124.78247,40.73187,Kuandian
东港市,东港,3,415,118300,中国-辽宁省-丹东市-东港市,124.16287,39.86256,Donggang
凤城市,凤城,3,415,118100,中国-辽宁省-丹东市-凤城市,124.06671,40.45302,Fengcheng
锦州市,锦州,2,416,121000,中国-辽宁省-锦州市,121.135742,41.119269,Jinzhou
古塔区,古塔,3,416,121001,中国-辽宁省-锦州市-古塔区,121.12832,41.11725,Guta
凌河区,凌河,3,416,121000,中国-辽宁省-锦州市-凌河区,121.15089,41.11496,Linghe
太和区,太和,3,416,121011,中国-辽宁省-锦州市-太和区,121.10354,41.10929,Taihe
黑山县,黑山,3,416,121400,中国-辽宁省-锦州市-黑山县,122.12081,41.69417,Heishan
义县,义县,3,416,121100,中国-辽宁省-锦州市-义县,121.24035,41.53458,Yixian
凌海市,凌海,3,416,121200,中国-辽宁省-锦州市-凌海市,121.35705,41.1737,Linghai
北镇市,北镇,3,416,121300,中国-辽宁省-锦州市-北镇市,121.79858,41.59537,Beizhen
营口市,营口,2,417,115003,中国-辽宁省-营口市,122.235151,40.667432,Yingkou
站前区,站前,3,417,115002,中国-辽宁省-营口市-站前区,122.25896,40.67266,Zhanqian
西市区,西市,3,417,115004,中国-辽宁省-营口市-西市区,122.20641,40.6664,Xishi
鲅鱼圈区,鲅鱼圈,3,417,115007,中国-辽宁省-营口市-鲅鱼圈区,122.13266,40.26865,Bayuquan
老边区,老边,3,417,115005,中国-辽宁省-营口市-老边区,122.37996,40.6803,Laobian
盖州市,盖州,3,417,115200,中国-辽宁省-营口市-盖州市,122.35464,40.40446,Gaizhou
大石桥市,大石桥,3,417,115100,中国-辽宁省-营口市-大石桥市,122.50927,40.64567,Dashiqiao
阜新市,阜新,2,418,123000,中国-辽宁省-阜新市,121.648962,42.011796,Fuxin
海州区,海州,3,418,123000,中国-辽宁省-阜新市-海州区,121.65626,42.01336,Haizhou
新邱区,新邱,3,418,123005,中国-辽宁省-阜新市-新邱区,121.79251,42.09181,Xinqiu
太平区,太平,3,418,123003,中国-辽宁省-阜新市-太平区,121.67865,42.01065,Taiping
清河门区,清河门,3,418,123006,中国-辽宁省-阜新市-清河门区,121.4161,41.78309,Qinghemen
细河区,细河,3,418,123000,中国-辽宁省-阜新市-细河区,121.68013,42.02533,Xihe
阜新蒙古族自治县,阜新,3,418,123100,中国-辽宁省-阜新市-阜新蒙古族自治县,121.75787,42.0651,Fuxin
彰武县,彰武,3,418,123200,中国-辽宁省-阜新市-彰武县,122.54022,42.38625,Zhangwu
辽阳市,辽阳,2,419,111000,中国-辽宁省-辽阳市,123.18152,41.269402,Liaoyang
白塔区,白塔,3,419,111000,中国-辽宁省-辽阳市-白塔区,123.1747,41.27025,Baita
文圣区,文圣,3,419,111000,中国-辽宁省-辽阳市-文圣区,123.18521,41.26267,Wensheng
宏伟区,宏伟,3,419,111003,中国-辽宁省-辽阳市-宏伟区,123.1929,41.21852,Hongwei
弓长岭区,弓长岭,3,419,111008,中国-辽宁省-辽阳市-弓长岭区,123.41963,41.15181,Gongchangling
太子河区,太子河,3,419,111000,中国-辽宁省-辽阳市-太子河区,123.18182,41.25337,Taizihe
辽阳县,辽阳,3,419,111200,中国-辽宁省-辽阳市-辽阳县,123.10574,41.20542,Liaoyang
灯塔市,灯塔,3,419,111300,中国-辽宁省-辽阳市-灯塔市,123.33926,41.42612,Dengta
盘锦市,盘锦,2,427,124010,中国-辽宁省-盘锦市,122.06957,41.124484,Panjin
双台子区,双台子,3,427,124000,中国-辽宁省-盘锦市-双台子区,122.06011,41.1906,Shuangtaizi
兴隆台区,兴隆台,3,427,124010,中国-辽宁省-盘锦市-兴隆台区,122.07529,41.12402,Xinglongtai
大洼县,大洼,3,427,124200,中国-辽宁省-盘锦市-大洼县,122.08239,41.00244,Dawa
盘山县,盘山,3,427,124000,中国-辽宁省-盘锦市-盘山县,121.99777,41.23805,Panshan
铁岭市,铁岭,2,24,112000,中国-辽宁省-铁岭市,123.844279,42.290585,Tieling
银州区,银州,3,24,112000,中国-辽宁省-铁岭市-银州区,123.8573,42.29507,Yinzhou
清河区,清河,3,24,112003,中国-辽宁省-铁岭市-清河区,124.15911,42.54679,Qinghe
铁岭县,铁岭,3,24,112000,中国-辽宁省-铁岭市-铁岭县,123.77325,42.22498,Tieling
西丰县,西丰,3,24,112400,中国-辽宁省-铁岭市-西丰县,124.7304,42.73756,Xifeng
昌图县,昌图,3,24,112500,中国-辽宁省-铁岭市-昌图县,124.11206,42.78428,Changtu
调兵山市,调兵山,3,24,112700,中国-辽宁省-铁岭市-调兵山市,123.56689,42.4675,Diaobingshan
开原市,开原,3,24,112300,中国-辽宁省-铁岭市-开原市,124.03945,42.54585,Kaiyuan
朝阳市,朝阳,2,421,122000,中国-辽宁省-朝阳市,120.451176,41.576758,Chaoyang
双塔区,双塔,3,421,122000,中国-辽宁省-朝阳市-双塔区,120.45385,41.566,Shuangta
龙城区,龙城,3,421,122000,中国-辽宁省-朝阳市-龙城区,120.43719,41.59264,Longcheng
朝阳县,朝阳,3,421,122000,中国-辽宁省-朝阳市-朝阳县,120.17401,41.4324,Chaoyang
建平县,建平,3,421,122400,中国-辽宁省-朝阳市-建平县,119.64392,41.40315,Jianping
喀喇沁左翼蒙古族自治县,喀喇沁左翼,3,421,122300,中国-辽宁省-朝阳市-喀喇沁左翼蒙古族自治县,119.74185,41.12801,Kalaqinzuoyi
北票市,北票,3,421,122100,中国-辽宁省-朝阳市-北票市,120.76977,41.80196,Beipiao
凌源市,凌源,3,421,122500,中国-辽宁省-朝阳市-凌源市,119.40148,41.24558,Lingyuan
葫芦岛市,葫芦岛,2,429,125000,中国-辽宁省-葫芦岛市,120.856394,40.755572,Huludao
连山区,连山,3,429,125001,中国-辽宁省-葫芦岛市-连山区,120.86393,40.75554,Lianshan
龙港区,龙港,3,429,125003,中国-辽宁省-葫芦岛市-龙港区,120.94866,40.71919,Longgang
南票区,南票,3,429,125027,中国-辽宁省-葫芦岛市-南票区,120.74978,41.10707,Nanpiao
绥中县,绥中,3,429,125200,中国-辽宁省-葫芦岛市-绥中县,120.34451,40.32552,Suizhong
建昌县,建昌,3,429,125300,中国-辽宁省-葫芦岛市-建昌县,119.8377,40.82448,Jianchang
兴城市,兴城,3,429,125100,中国-辽宁省-葫芦岛市-兴城市,120.72537,40.61492,Xingcheng
金普新区,金普新区,2,411,116100,中国-辽宁省-金普新区,121.789627,39.055451,Jinpuxinqu
金州新区,金州新区,3,411,116100,中国-辽宁省-金普新区-金州新区,121.784821,39.052252,Jinzhouxinqu
普湾新区,普湾新区,3,411,116200,中国-辽宁省-金普新区-普湾新区,121.812812,39.330093,Puwanxinqu
保税区,保税区,3,411,116100,中国-辽宁省-金普新区-保税区,121.94289,39.224614,Baoshuiqu
吉林省,吉林,1,,,中国-吉林省,125.3245,43.886841,Jilin
长春市,长春,2,431,130022,中国-吉林省-长春市,125.3245,43.886841,Changchun
南关区,南关,3,431,130022,中国-吉林省-长春市-南关区,125.35035,43.86401,Nanguan
宽城区,宽城,3,431,130051,中国-吉林省-长春市-宽城区,125.32635,43.90182,Kuancheng
朝阳区,朝阳,3,431,130012,中国-吉林省-长春市-朝阳区,125.2883,43.83339,Chaoyang
二道区,二道,3,431,130031,中国-吉林省-长春市-二道区,125.37429,43.86501,Erdao
绿园区,绿园,3,431,130062,中国-吉林省-长春市-绿园区,125.25582,43.88045,Lvyuan
双阳区,双阳,3,431,130600,中国-吉林省-长春市-双阳区,125.65631,43.52803,Shuangyang
九台区,九台,3,431,130500,中国-吉林省-长春市-九台区,125.8395,44.15163,Jiutai
农安县,农安,3,431,130200,中国-吉林省-长春市-农安县,125.18481,44.43265,Nong'an
榆树市,榆树,3,431,130400,中国-吉林省-长春市-榆树市,126.55688,44.82523,Yushu
德惠市,德惠,3,431,130300,中国-吉林省-长春市-德惠市,125.70538,44.53719,Dehui
吉林市,吉林,2,432,132011,中国-吉林省-吉林市,126.55302,43.843577,Jilin
昌邑区,昌邑,3,432,132002,中国-吉林省-吉林市-昌邑区,126.57424,43.88183,Changyi
龙潭区,龙潭,3,432,132021,中国-吉林省-吉林市-龙潭区,126.56213,43.91054,Longtan
船营区,船营,3,432,132011,中国-吉林省-吉林市-船营区,126.54096,43.83344,Chuanying
丰满区,丰满,3,432,132013,中国-吉林省-吉林市-丰满区,126.56237,43.82236,Fengman
永吉县,永吉,3,432,132200,中国-吉林省-吉林市-永吉县,126.4963,43.67197,Yongji
蛟河市,蛟河,3,432,132500,中国-吉林省-吉林市-蛟河市,127.34426,43.72696,Jiaohe
桦甸市,桦甸,3,432,132400,中国-吉林省-吉林市-桦甸市,126.74624,42.97206,Huadian
舒兰市,舒兰,3,432,132600,中国-吉林省-吉林市-舒兰市,126.9653,44.40582,Shulan
磐石市,磐石,3,432,132300,中国-吉林省-吉林市-磐石市,126.0625,42.94628,Panshi
四平市,四平,2,434,136000,中国-吉林省-四平市,124.370785,43.170344,Siping
铁西区,铁西,3,434,136000,中国-吉林省-四平市-铁西区,124.37369,43.17456,Tiexi
铁东区,铁东,3,434,136001,中国-吉林省-四平市-铁东区,124.40976,43.16241,Tiedong
梨树县,梨树,3,434,136500,中国-吉林省-四平市-梨树县,124.33563,43.30717,Lishu
伊通满族自治县,伊通,3,434,130700,中国-吉林省-四平市-伊通满族自治县,125.30596,43.34434,Yitong
公主岭市,公主岭,3,434,136100,中国-吉林省-四平市-公主岭市,124.82266,43.50453,Gongzhuling
双辽市,双辽,3,434,136400,中国-吉林省-四平市-双辽市,123.50106,43.52099,Shuangliao
辽源市,辽源,2,437,136200,中国-吉林省-辽源市,125.145349,42.902692,Liaoyuan
龙山区,龙山,3,437,136200,中国-吉林省-辽源市-龙山区,125.13641,42.89714,Longshan
西安区,西安,3,437,136201,中国-吉林省-辽源市-西安区,125.14904,42.927,Xi'an
东丰县,东丰,3,437,136300,中国-吉林省-辽源市-东丰县,125.53244,42.6783,Dongfeng
东辽县,东辽,3,437,136600,中国-吉林省-辽源市-东辽县,124.98596,42.92492,Dongliao
通化市,通化,2,435,134001,中国-吉林省-通化市,125.936501,41.721177,Tonghua
东昌区,东昌,3,435,134001,中国-吉林省-通化市-东昌区,125.9551,41.72849,Dongchang
二道江区,二道江,3,435,134003,中国-吉林省-通化市-二道江区,126.04257,41.7741,Erdaojiang
通化县,通化,3,435,134100,中国-吉林省-通化市-通化县,125.75936,41.67928,Tonghua
辉南县,辉南,3,435,135100,中国-吉林省-通化市-辉南县,126.04684,42.68497,Huinan
柳河县,柳河,3,435,135300,中国-吉林省-通化市-柳河县,125.74475,42.28468,Liuhe
梅河口市,梅河口,3,435,135000,中国-吉林省-通化市-梅河口市,125.71041,42.53828,Meihekou
集安市,集安,3,435,134200,中国-吉林省-通化市-集安市,126.18829,41.12268,Ji'an
白山市,白山,2,439,134300,中国-吉林省-白山市,126.427839,41.942505,Baishan
浑江区,浑江,3,439,134300,中国-吉林省-白山市-浑江区,126.422342,41.945656,Hunjiang
江源区,江源,3,439,134700,中国-吉林省-白山市-江源区,126.59079,42.05664,Jiangyuan
抚松县,抚松,3,439,134500,中国-吉林省-白山市-抚松县,127.2803,42.34198,Fusong
靖宇县,靖宇,3,439,135200,中国-吉林省-白山市-靖宇县,126.81308,42.38863,Jingyu
长白朝鲜族自治县,长白,3,439,134400,中国-吉林省-白山市-长白朝鲜族自治县,128.20047,41.41996,Changbai
临江市,临江,3,439,134600,中国-吉林省-白山市-临江市,126.91751,41.81142,Linjiang
松原市,松原,2,438,138000,中国-吉林省-松原市,124.823608,45.118243,Songyuan
宁江区,宁江,3,438,138000,中国-吉林省-松原市-宁江区,124.81689,45.17175,Ningjiang
前郭尔罗斯蒙古族自治县,前郭尔罗斯,3,438,138000,中国-吉林省-松原市-前郭尔罗斯蒙古族自治县,124.82351,45.11726,Qianguoerluosi
长岭县,长岭,3,438,131500,中国-吉林省-松原市-长岭县,123.96725,44.27581,Changling
乾安县,乾安,3,438,131400,中国-吉林省-松原市-乾安县,124.02737,45.01068,Qian'an
扶余市,扶余,3,438,131200,中国-吉林省-松原市-扶余市,126.042758,44.986199,Fuyu
白城市,白城,2,436,137000,中国-吉林省-白城市,122.841114,45.619026,Baicheng
洮北区,洮北,3,436,137000,中国-吉林省-白城市-洮北区,122.85104,45.62167,Taobei
镇赉县,镇赉,3,436,137300,中国-吉林省-白城市-镇赉县,123.19924,45.84779,Zhenlai
通榆县,通榆,3,436,137200,中国-吉林省-白城市-通榆县,123.08761,44.81388,Tongyu
洮南市,洮南,3,436,137100,中国-吉林省-白城市-洮南市,122.78772,45.33502,Taonan
大安市,大安,3,436,131300,中国-吉林省-白城市-大安市,124.29519,45.50846,Da'an
延边朝鲜族自治州,延边,2,433,133000,中国-吉林省-延边朝鲜族自治州,129.513228,42.904823,Yanbian
延吉市,延吉,3,433,133000,中国-吉林省-延边朝鲜族自治州-延吉市,129.51357,42.90682,Yanji
图们市,图们,3,433,133100,中国-吉林省-延边朝鲜族自治州-图们市,129.84381,42.96801,Tumen
敦化市,敦化,3,433,133700,中国-吉林省-延边朝鲜族自治州-敦化市,128.23242,43.37304,Dunhua
珲春市,珲春,3,433,133300,中国-吉林省-延边朝鲜族自治州-珲春市,130.36572,42.86242,Hunchun
龙井市,龙井,3,433,133400,中国-吉林省-延边朝鲜族自治州-龙井市,129.42584,42.76804,Longjing
和龙市,和龙,3,433,133500,中国-吉林省-延边朝鲜族自治州-和龙市,129.01077,42.5464,Helong
汪清县,汪清,3,433,133200,中国-吉林省-延边朝鲜族自治州-汪清县,129.77121,43.31278,Wangqing
安图县,安图,3,433,133600,中国-吉林省-延边朝鲜族自治州-安图县,128.90625,43.11533,Antu
黑龙江省,黑龙江,1,,,中国-黑龙江省,126.642464,45.756967,Heilongjiang
哈尔滨市,哈尔滨,2,451,150010,中国-黑龙江省-哈尔滨市,126.642464,45.756967,Harbin
道里区,道里,3,451,150010,中国-黑龙江省-哈尔滨市-道里区,126.61705,45.75586,Daoli
南岗区,南岗,3,451,150006,中国-黑龙江省-哈尔滨市-南岗区,126.66854,45.75996,Nangang
道外区,道外,3,451,150020,中国-黑龙江省-哈尔滨市-道外区,126.64938,45.79187,Daowai
平房区,平房,3,451,150060,中国-黑龙江省-哈尔滨市-平房区,126.63729,45.59777,Pingfang
松北区,松北,3,451,150028,中国-黑龙江省-哈尔滨市-松北区,126.56276,45.80831,Songbei
香坊区,香坊,3,451,150036,中国-黑龙江省-哈尔滨市-香坊区,126.67968,45.72383,Xiangfang
呼兰区,呼兰,3,451,150500,中国-黑龙江省-哈尔滨市-呼兰区,126.58792,45.88895,Hulan
阿城区,阿城,3,451,150300,中国-黑龙江省-哈尔滨市-阿城区,126.97525,45.54144,A'cheng
双城区,双城,3,451,150100,中国-黑龙江省-哈尔滨市-双城区,126.308784,45.377942,Shuangcheng
依兰县,依兰,3,451,154800,中国-黑龙江省-哈尔滨市-依兰县,129.56817,46.3247,Yilan
方正县,方正,3,451,150800,中国-黑龙江省-哈尔滨市-方正县,128.82952,45.85162,Fangzheng
宾县,宾县,3,451,150400,中国-黑龙江省-哈尔滨市-宾县,127.48675,45.75504,Binxian
巴彦县,巴彦,3,451,151800,中国-黑龙江省-哈尔滨市-巴彦县,127.40799,46.08148,Bayan
木兰县,木兰,3,451,151900,中国-黑龙江省-哈尔滨市-木兰县,128.0448,45.94944,Mulan
通河县,通河,3,451,150900,中国-黑龙江省-哈尔滨市-通河县,128.74603,45.99007,Tonghe
延寿县,延寿,3,451,150700,中国-黑龙江省-哈尔滨市-延寿县,128.33419,45.4554,Yanshou
尚志市,尚志,3,451,150600,中国-黑龙江省-哈尔滨市-尚志市,127.96191,45.21736,Shangzhi
五常市,五常,3,451,150200,中国-黑龙江省-哈尔滨市-五常市,127.16751,44.93184,Wuchang
齐齐哈尔市,齐齐哈尔,2,452,161005,中国-黑龙江省-齐齐哈尔市,123.953486,47.348079,Qiqihar
龙沙区,龙沙,3,452,161000,中国-黑龙江省-齐齐哈尔市-龙沙区,123.95752,47.31776,Longsha
建华区,建华,3,452,161006,中国-黑龙江省-齐齐哈尔市-建华区,124.0133,47.36718,Jianhua
铁锋区,铁锋,3,452,161000,中国-黑龙江省-齐齐哈尔市-铁锋区,123.97821,47.34075,Tiefeng
昂昂溪区,昂昂溪,3,452,161031,中国-黑龙江省-齐齐哈尔市-昂昂溪区,123.82229,47.15513,Angangxi
富拉尔基区,富拉尔基,3,452,161041,中国-黑龙江省-齐齐哈尔市-富拉尔基区,123.62918,47.20884,Fulaerji
碾子山区,碾子山,3,452,161046,中国-黑龙江省-齐齐哈尔市-碾子山区,122.88183,47.51662,Nianzishan
梅里斯达斡尔族区,梅里斯,3,452,161021,中国-黑龙江省-齐齐哈尔市-梅里斯达斡尔族区,123.75274,47.30946,Meilisi
龙江县,龙江,3,452,161100,中国-黑龙江省-齐齐哈尔市-龙江县,123.20532,47.33868,Longjiang
依安县,依安,3,452,161500,中国-黑龙江省-齐齐哈尔市-依安县,125.30896,47.8931,Yi'an
泰来县,泰来,3,452,162400,中国-黑龙江省-齐齐哈尔市-泰来县,123.42285,46.39386,Tailai
甘南县,甘南,3,452,162100,中国-黑龙江省-齐齐哈尔市-甘南县,123.50317,47.92437,Gannan
富裕县,富裕,3,452,161200,中国-黑龙江省-齐齐哈尔市-富裕县,124.47457,47.77431,Fuyu
克山县,克山,3,452,161600,中国-黑龙江省-齐齐哈尔市-克山县,125.87396,48.03265,Keshan
克东县,克东,3,452,164800,中国-黑龙江省-齐齐哈尔市-克东县,126.24917,48.03828,Kedong
拜泉县,拜泉,3,452,164700,中国-黑龙江省-齐齐哈尔市-拜泉县,126.09167,47.60817,Baiquan
讷河市,讷河,3,452,161300,中国-黑龙江省-齐齐哈尔市-讷河市,124.87713,48.48388,Nehe
鸡西市,鸡西,2,467,158100,中国-黑龙江省-鸡西市,130.975966,45.300046,Jixi
鸡冠区,鸡冠,3,467,158100,中国-黑龙江省-鸡西市-鸡冠区,130.98139,45.30396,Jiguan
恒山区,恒山,3,467,158130,中国-黑龙江省-鸡西市-恒山区,130.90493,45.21071,Hengshan
滴道区,滴道,3,467,158150,中国-黑龙江省-鸡西市-滴道区,130.84841,45.35109,Didao
梨树区,梨树,3,467,158160,中国-黑龙江省-鸡西市-梨树区,130.69848,45.09037,Lishu
城子河区,城子河,3,467,158170,中国-黑龙江省-鸡西市-城子河区,131.01132,45.33689,Chengzihe
麻山区,麻山,3,467,158180,中国-黑龙江省-鸡西市-麻山区,130.47811,45.21209,Mashan
鸡东县,鸡东,3,467,158200,中国-黑龙江省-鸡西市-鸡东县,131.12423,45.26025,Jidong
虎林市,虎林,3,467,158400,中国-黑龙江省-鸡西市-虎林市,132.93679,45.76291,Hulin
密山市,密山,3,467,158300,中国-黑龙江省-鸡西市-密山市,131.84625,45.5297,Mishan
鹤岗市,鹤岗,2,468,154100,中国-黑龙江省-鹤岗市,130.277487,47.332085,Hegang
向阳区,向阳,3,468,154100,中国-黑龙江省-鹤岗市-向阳区,130.2943,47.34247,Xiangyang
工农区,工农,3,468,154101,中国-黑龙江省-鹤岗市-工农区,130.27468,47.31869,Gongnong
南山区,南山,3,468,154104,中国-黑龙江省-鹤岗市-南山区,130.27676,47.31404,Nanshan
兴安区,兴安,3,468,154102,中国-黑龙江省-鹤岗市-兴安区,130.23965,47.2526,Xing'an
东山区,东山,3,468,154106,中国-黑龙江省-鹤岗市-东山区,130.31706,47.33853,Dongshan
兴山区,兴山,3,468,154105,中国-黑龙江省-鹤岗市-兴山区,130.29271,47.35776,Xingshan
萝北县,萝北,3,468,154200,中国-黑龙江省-鹤岗市-萝北县,130.83346,47.57959,Luobei
绥滨县,绥滨,3,468,156200,中国-黑龙江省-鹤岗市-绥滨县,131.86029,47.2903,Suibin
双鸭山市,双鸭山,2,469,155100,中国-黑龙江省-双鸭山市,131.157304,46.643442,Shuangyashan
尖山区,尖山,3,469,155100,中国-黑龙江省-双鸭山市-尖山区,131.15841,46.64635,Jianshan
岭东区,岭东,3,469,155120,中国-黑龙江省-双鸭山市-岭东区,131.16473,46.59043,Lingdong
四方台区,四方台,3,469,155130,中国-黑龙江省-双鸭山市-四方台区,131.33593,46.59499,Sifangtai
宝山区,宝山,3,469,155131,中国-黑龙江省-双鸭山市-宝山区,131.4016,46.57718,Baoshan
集贤县,集贤,3,469,155900,中国-黑龙江省-双鸭山市-集贤县,131.14053,46.72678,Jixian
友谊县,友谊,3,469,155800,中国-黑龙江省-双鸭山市-友谊县,131.80789,46.76739,Youyi
宝清县,宝清,3,469,155600,中国-黑龙江省-双鸭山市-宝清县,132.19695,46.32716,Baoqing
饶河县,饶河,3,469,155700,中国-黑龙江省-双鸭山市-饶河县,134.01986,46.79899,Raohe
大庆市,大庆,2,459,163000,中国-黑龙江省-大庆市,125.11272,46.590734,Daqing
萨尔图区,萨尔图,3,459,163001,中国-黑龙江省-大庆市-萨尔图区,125.08792,46.59359,Saertu
龙凤区,龙凤,3,459,163711,中国-黑龙江省-大庆市-龙凤区,125.11657,46.53273,Longfeng
让胡路区,让胡路,3,459,163712,中国-黑龙江省-大庆市-让胡路区,124.87075,46.6522,Ranghulu
红岗区,红岗,3,459,163511,中国-黑龙江省-大庆市-红岗区,124.89248,46.40128,Honggang
大同区,大同,3,459,163515,中国-黑龙江省-大庆市-大同区,124.81591,46.03295,Datong
肇州县,肇州,3,459,166400,中国-黑龙江省-大庆市-肇州县,125.27059,45.70414,Zhaozhou
肇源县,肇源,3,459,166500,中国-黑龙江省-大庆市-肇源县,125.08456,45.52032,Zhaoyuan
林甸县,林甸,3,459,166300,中国-黑龙江省-大庆市-林甸县,124.87564,47.18601,Lindian
杜尔伯特蒙古族自治县,杜尔伯特,3,459,166200,中国-黑龙江省-大庆市-杜尔伯特蒙古族自治县,124.44937,46.86507,Duerbote
伊春市,伊春,2,458,153000,中国-黑龙江省-伊春市,128.899396,47.724775,Yichun
伊春区,伊春,3,458,153000,中国-黑龙江省-伊春市-伊春区,128.90752,47.728,Yichun
南岔区,南岔,3,458,153100,中国-黑龙江省-伊春市-南岔区,129.28362,47.13897,Nancha
友好区,友好,3,458,153031,中国-黑龙江省-伊春市-友好区,128.84039,47.85371,Youhao
西林区,西林,3,458,153025,中国-黑龙江省-伊春市-西林区,129.31201,47.48103,Xilin
翠峦区,翠峦,3,458,153013,中国-黑龙江省-伊春市-翠峦区,128.66729,47.72503,Cuiluan
新青区,新青,3,458,153036,中国-黑龙江省-伊春市-新青区,129.53653,48.29067,Xinqing
美溪区,美溪,3,458,153021,中国-黑龙江省-伊春市-美溪区,129.13708,47.63513,Meixi
金山屯区,金山屯,3,458,153026,中国-黑龙江省-伊春市-金山屯区,129.43768,47.41349,Jinshantun
五营区,五营,3,458,153033,中国-黑龙江省-伊春市-五营区,129.24545,48.10791,Wuying
乌马河区,乌马河,3,458,153011,中国-黑龙江省-伊春市-乌马河区,128.79672,47.728,Wumahe
汤旺河区,汤旺河,3,458,153037,中国-黑龙江省-伊春市-汤旺河区,129.57226,48.45182,Tangwanghe
带岭区,带岭,3,458,153106,中国-黑龙江省-伊春市-带岭区,129.02352,47.02553,Dailing
乌伊岭区,乌伊岭,3,458,153038,中国-黑龙江省-伊春市-乌伊岭区,129.43981,48.59602,Wuyiling
红星区,红星,3,458,153035,中国-黑龙江省-伊春市-红星区,129.3887,48.23944,Hongxing
上甘岭区,上甘岭,3,458,153032,中国-黑龙江省-伊春市-上甘岭区,129.02447,47.97522,Shangganling
嘉荫县,嘉荫,3,458,153200,中国-黑龙江省-伊春市-嘉荫县,130.39825,48.8917,Jiayin
铁力市,铁力,3,458,152500,中国-黑龙江省-伊春市-铁力市,128.0317,46.98571,Tieli
佳木斯市,佳木斯,2,454,154002,中国-黑龙江省-佳木斯市,130.361634,46.809606,Jiamusi
向阳区,向阳,3,454,154002,中国-黑龙江省-佳木斯市-向阳区,130.36519,46.80778,Xiangyang
前进区,前进,3,454,154002,中国-黑龙江省-佳木斯市-前进区,130.37497,46.81401,Qianjin
东风区,东风,3,454,154005,中国-黑龙江省-佳木斯市-东风区,130.40366,46.82257,Dongfeng
郊区,郊区,3,454,154004,中国-黑龙江省-佳木斯市-郊区,130.32731,46.80958,Jiaoqu
桦南县,桦南,3,454,154400,中国-黑龙江省-佳木斯市-桦南县,130.55361,46.23921,Huanan
桦川县,桦川,3,454,154300,中国-黑龙江省-佳木斯市-桦川县,130.71893,47.02297,Huachuan
汤原县,汤原,3,454,154700,中国-黑龙江省-佳木斯市-汤原县,129.90966,46.72755,Tangyuan
抚远县,抚远,3,454,156500,中国-黑龙江省-佳木斯市-抚远县,134.29595,48.36794,Fuyuan
同江市,同江,3,454,156400,中国-黑龙江省-佳木斯市-同江市,132.51095,47.64211,Tongjiang
富锦市,富锦,3,454,156100,中国-黑龙江省-佳木斯市-富锦市,132.03707,47.25132,Fujin
七台河市,七台河,2,464,154600,中国-黑龙江省-七台河市,131.015584,45.771266,Qitaihe
新兴区,新兴,3,464,154604,中国-黑龙江省-七台河市-新兴区,130.93212,45.81624,Xinxing
桃山区,桃山,3,464,154600,中国-黑龙江省-七台河市-桃山区,131.01786,45.76782,Taoshan
茄子河区,茄子河,3,464,154622,中国-黑龙江省-七台河市-茄子河区,131.06807,45.78519,Qiezihe
勃利县,勃利,3,464,154500,中国-黑龙江省-七台河市-勃利县,130.59179,45.755,Boli
牡丹江市,牡丹江,2,453,157000,中国-黑龙江省-牡丹江市,129.618602,44.582962,Mudanjiang
东安区,东安,3,453,157000,中国-黑龙江省-牡丹江市-东安区,129.62665,44.58133,Dong'an
阳明区,阳明,3,453,157013,中国-黑龙江省-牡丹江市-阳明区,129.63547,44.59603,Yangming
爱民区,爱民,3,453,157009,中国-黑龙江省-牡丹江市-爱民区,129.59077,44.59648,Aimin
西安区,西安,3,453,157000,中国-黑龙江省-牡丹江市-西安区,129.61616,44.57766,Xi'an
东宁县,东宁,3,453,157200,中国-黑龙江省-牡丹江市-东宁县,131.12793,44.0661,Dongning
林口县,林口,3,453,157600,中国-黑龙江省-牡丹江市-林口县,130.28393,45.27809,Linkou
绥芬河市,绥芬河,3,453,157300,中国-黑龙江省-牡丹江市-绥芬河市,131.15139,44.41249,Suifenhe
海林市,海林,3,453,157100,中国-黑龙江省-牡丹江市-海林市,129.38156,44.59,Hailin
宁安市,宁安,3,453,157400,中国-黑龙江省-牡丹江市-宁安市,129.48303,44.34016,Ning'an
穆棱市,穆棱,3,453,157500,中国-黑龙江省-牡丹江市-穆棱市,130.52465,44.919,Muling
黑河市,黑河,2,456,164300,中国-黑龙江省-黑河市,127.499023,50.249585,Heihe
爱辉区,爱辉,3,456,164300,中国-黑龙江省-黑河市-爱辉区,127.50074,50.25202,Aihui
嫩江县,嫩江,3,456,161400,中国-黑龙江省-黑河市-嫩江县,125.22607,49.17844,Nenjiang
逊克县,逊克,3,456,164400,中国-黑龙江省-黑河市-逊克县,128.47882,49.57983,Xunke
孙吴县,孙吴,3,456,164200,中国-黑龙江省-黑河市-孙吴县,127.33599,49.42539,Sunwu
北安市,北安,3,456,164000,中国-黑龙江省-黑河市-北安市,126.48193,48.23872,Bei'an
五大连池市,五大连池,3,456,164100,中国-黑龙江省-黑河市-五大连池市,126.20294,48.51507,Wudalianchi
绥化市,绥化,2,455,152000,中国-黑龙江省-绥化市,126.99293,46.637393,Suihua
北林区,北林,3,455,152000,中国-黑龙江省-绥化市-北林区,126.98564,46.63735,Beilin
望奎县,望奎,3,455,152100,中国-黑龙江省-绥化市-望奎县,126.48187,46.83079,Wangkui
兰西县,兰西,3,455,151500,中国-黑龙江省-绥化市-兰西县,126.28994,46.2525,Lanxi
青冈县,青冈,3,455,151600,中国-黑龙江省-绥化市-青冈县,126.11325,46.68534,Qinggang
庆安县,庆安,3,455,152400,中国-黑龙江省-绥化市-庆安县,127.50753,46.88016,Qing'an
明水县,明水,3,455,151700,中国-黑龙江省-绥化市-明水县,125.90594,47.17327,Mingshui
绥棱县,绥棱,3,455,152200,中国-黑龙江省-绥化市-绥棱县,127.11584,47.24267,Suileng
安达市,安达,3,455,151400,中国-黑龙江省-绥化市-安达市,125.34375,46.4177,Anda
肇东市,肇东,3,455,151100,中国-黑龙江省-绥化市-肇东市,125.96243,46.05131,Zhaodong
海伦市,海伦,3,455,152300,中国-黑龙江省-绥化市-海伦市,126.9682,47.46093,Hailun
大兴安岭地区,大兴安岭,2,457,165000,中国-黑龙江省-大兴安岭地区,124.711526,52.335262,DaXingAnLing
加格达奇区,加格达奇,3,457,165000,中国-黑龙江省-大兴安岭地区-加格达奇区,124.30954,51.98144,Jiagedaqi
新林区,新林,3,457,165000,中国-黑龙江省-大兴安岭地区-新林区,124.397983,51.67341,Xinlin
松岭区,松岭,3,457,165000,中国-黑龙江省-大兴安岭地区-松岭区,124.189713,51.985453,Songling
呼中区,呼中,3,457,165000,中国-黑龙江省-大兴安岭地区-呼中区,123.60009,52.03346,Huzhong
呼玛县,呼玛,3,457,165100,中国-黑龙江省-大兴安岭地区-呼玛县,126.66174,51.73112,Huma
塔河县,塔河,3,457,165200,中国-黑龙江省-大兴安岭地区-塔河县,124.70999,52.33431,Tahe
漠河县,漠河,3,457,165300,中国-黑龙江省-大兴安岭地区-漠河县,122.53759,52.97003,Mohe
上海,上海,1,,,中国-上海,121.472644,31.231706,Shanghai
上海市,上海,2,21,200000,中国-上海-上海市,121.472644,31.231706,Shanghai
黄浦区,黄浦,3,21,200001,中国-上海-上海市-黄浦区,121.49295,31.22337,Huangpu
徐汇区,徐汇,3,21,200030,中国-上海-上海市-徐汇区,121.43676,31.18831,Xuhui
长宁区,长宁,3,21,200050,中国-上海-上海市-长宁区,121.42462,31.22036,Changning
静安区,静安,3,21,200040,中国-上海-上海市-静安区,121.4444,31.22884,Jing'an
普陀区,普陀,3,21,200333,中国-上海-上海市-普陀区,121.39703,31.24951,Putuo
闸北区,闸北,3,21,200070,中国-上海-上海市-闸北区,121.44636,31.28075,Zhabei
虹口区,虹口,3,21,200086,中国-上海-上海市-虹口区,121.48162,31.27788,Hongkou
杨浦区,杨浦,3,21,200082,中国-上海-上海市-杨浦区,121.526,31.2595,Yangpu
闵行区,闵行,3,21,201100,中国-上海-上海市-闵行区,121.38162,31.11246,Minhang
宝山区,宝山,3,21,201900,中国-上海-上海市-宝山区,121.4891,31.4045,Baoshan
嘉定区,嘉定,3,21,201800,中国-上海-上海市-嘉定区,121.2655,31.37473,Jiading
浦东新区,浦东,3,21,200135,中国-上海-上海市-浦东新区,121.5447,31.22249,Pudong
金山区,金山,3,21,200540,中国-上海-上海市-金山区,121.34164,30.74163,Jinshan
松江区,松江,3,21,201600,中国-上海-上海市-松江区,121.22879,31.03222,Songjiang
青浦区,青浦,3,21,201700,中国-上海-上海市-青浦区,121.12417,31.14974,Qingpu
奉贤区,奉贤,3,21,201400,中国-上海-上海市-奉贤区,121.47412,30.9179,Fengxian
崇明县,崇明,3,21,202150,中国-上海-上海市-崇明县,121.39758,31.62278,Chongming
江苏省,江苏,1,,,中国-江苏省,118.767413,32.041544,Jiangsu
南京市,南京,2,25,210008,中国-江苏省-南京市,118.767413,32.041544,Nanjing
玄武区,玄武,3,25,210018,中国-江苏省-南京市-玄武区,118.79772,32.04856,Xuanwu
秦淮区,秦淮,3,25,210001,中国-江苏省-南京市-秦淮区,118.79815,32.01112,Qinhuai
建邺区,建邺,3,25,210004,中国-江苏省-南京市-建邺区,118.76641,32.03096,Jianye
鼓楼区,鼓楼,3,25,210009,中国-江苏省-南京市-鼓楼区,118.76974,32.06632,Gulou
浦口区,浦口,3,25,211800,中国-江苏省-南京市-浦口区,118.62802,32.05881,Pukou
栖霞区,栖霞,3,25,210046,中国-江苏省-南京市-栖霞区,118.88064,32.11352,Qixia
雨花台区,雨花台,3,25,210012,中国-江苏省-南京市-雨花台区,118.7799,31.99202,Yuhuatai
江宁区,江宁,3,25,211100,中国-江苏省-南京市-江宁区,118.8399,31.95263,Jiangning
六合区,六合,3,25,211500,中国-江苏省-南京市-六合区,118.8413,32.34222,Luhe
溧水区,溧水,3,25,211200,中国-江苏省-南京市-溧水区,119.028732,31.653061,Lishui
高淳区,高淳,3,25,211300,中国-江苏省-南京市-高淳区,118.87589,31.327132,Gaochun
无锡市,无锡,2,510,214000,中国-江苏省-无锡市,120.301663,31.574729,Wuxi
崇安区,崇安,3,510,214001,中国-江苏省-无锡市-崇安区,120.29975,31.58002,Chong'an
南长区,南长,3,510,214021,中国-江苏省-无锡市-南长区,120.30873,31.56359,Nanchang
北塘区,北塘,3,510,214044,中国-江苏省-无锡市-北塘区,120.29405,31.60592,Beitang
锡山区,锡山,3,510,214101,中国-江苏省-无锡市-锡山区,120.35699,31.5886,Xishan
惠山区,惠山,3,510,214174,中国-江苏省-无锡市-惠山区,120.29849,31.68088,Huishan
滨湖区,滨湖,3,510,214123,中国-江苏省-无锡市-滨湖区,120.29461,31.52162,Binhu
江阴市,江阴,3,510,214431,中国-江苏省-无锡市-江阴市,120.2853,31.91996,Jiangyin
宜兴市,宜兴,3,510,214200,中国-江苏省-无锡市-宜兴市,119.82357,31.33978,Yixing
徐州市,徐州,2,516,221003,中国-江苏省-徐州市,117.184811,34.261792,Xuzhou
鼓楼区,鼓楼,3,516,221005,中国-江苏省-徐州市-鼓楼区,117.18559,34.28851,Gulou
云龙区,云龙,3,516,221007,中国-江苏省-徐州市-云龙区,117.23053,34.24895,Yunlong
贾汪区,贾汪,3,516,221003,中国-江苏省-徐州市-贾汪区,117.45346,34.44264,Jiawang
泉山区,泉山,3,516,221006,中国-江苏省-徐州市-泉山区,117.19378,34.24418,Quanshan
铜山区,铜山,3,516,221106,中国-江苏省-徐州市-铜山区,117.183894,34.19288,Tongshan
丰县,丰县,3,516,221700,中国-江苏省-徐州市-丰县,116.59957,34.69972,Fengxian
沛县,沛县,3,516,221600,中国-江苏省-徐州市-沛县,116.93743,34.72163,Peixian
睢宁县,睢宁,3,516,221200,中国-江苏省-徐州市-睢宁县,117.94104,33.91269,Suining
新沂市,新沂,3,516,221400,中国-江苏省-徐州市-新沂市,118.35452,34.36942,Xinyi
邳州市,邳州,3,516,221300,中国-江苏省-徐州市-邳州市,117.95858,34.33329,Pizhou
常州市,常州,2,519,213000,中国-江苏省-常州市,119.946973,31.772752,Changzhou
天宁区,天宁,3,519,213000,中国-江苏省-常州市-天宁区,119.95132,31.75211,Tianning
钟楼区,钟楼,3,519,213023,中国-江苏省-常州市-钟楼区,119.90178,31.80221,Zhonglou
戚墅堰区,戚墅堰,3,519,213025,中国-江苏省-常州市-戚墅堰区,120.06106,31.71956,Qishuyan
新北区,新北,3,519,213022,中国-江苏省-常州市-新北区,119.97131,31.83046,Xinbei
武进区,武进,3,519,213100,中国-江苏省-常州市-武进区,119.94244,31.70086,Wujin
溧阳市,溧阳,3,519,213300,中国-江苏省-常州市-溧阳市,119.4837,31.41538,Liyang
金坛市,金坛,3,519,213200,中国-江苏省-常州市-金坛市,119.57757,31.74043,Jintan
苏州市,苏州,2,512,215002,中国-江苏省-苏州市,120.619585,31.299379,Suzhou
虎丘区,虎丘,3,512,215004,中国-江苏省-苏州市-虎丘区,120.57345,31.2953,Huqiu
吴中区,吴中,3,512,215128,中国-江苏省-苏州市-吴中区,120.63211,31.26226,Wuzhong
相城区,相城,3,512,215131,中国-江苏省-苏州市-相城区,120.64239,31.36889,Xiangcheng
姑苏区,姑苏,3,512,215031,中国-江苏省-苏州市-姑苏区,120.619585,31.299379,Gusu
吴江区,吴江,3,512,215200,中国-江苏省-苏州市-吴江区,120.638317,31.159815,Wujiang
常熟市,常熟,3,512,215500,中国-江苏省-苏州市-常熟市,120.75225,31.65374,Changshu
张家港市,张家港,3,512,215600,中国-江苏省-苏州市-张家港市,120.55538,31.87532,Zhangjiagang
昆山市,昆山,3,512,215300,中国-江苏省-苏州市-昆山市,120.98074,31.38464,Kunshan
太仓市,太仓,3,512,215400,中国-江苏省-苏州市-太仓市,121.10891,31.4497,Taicang
南通市,南通,2,513,226001,中国-江苏省-南通市,120.864608,32.016212,Nantong
崇川区,崇川,3,513,226001,中国-江苏省-南通市-崇川区,120.8573,32.0098,Chongchuan
港闸区,港闸,3,513,226001,中国-江苏省-南通市-港闸区,120.81778,32.03163,Gangzha
通州区,通州,3,513,226300,中国-江苏省-南通市-通州区,121.07293,32.0676,Tongzhou
海安县,海安,3,513,226600,中国-江苏省-南通市-海安县,120.45852,32.54514,Hai'an
如东县,如东,3,513,226400,中国-江苏省-南通市-如东县,121.18942,32.31439,Rudong
启东市,启东,3,513,226200,中国-江苏省-南通市-启东市,121.65985,31.81083,Qidong
如皋市,如皋,3,513,226500,中国-江苏省-南通市-如皋市,120.55969,32.37597,Rugao
海门市,海门,3,513,226100,中国-江苏省-南通市-海门市,121.16995,31.89422,Haimen
连云港市,连云港,2,518,222002,中国-江苏省-连云港市,119.178821,34.600018,Lianyungang
连云区,连云,3,518,222042,中国-江苏省-连云港市-连云区,119.37304,34.75293,Lianyun
海州区,海州,3,518,222003,中国-江苏省-连云港市-海州区,119.13128,34.56986,Haizhou
赣榆区,赣榆,3,518,222100,中国-江苏省-连云港市-赣榆区,119.128774,34.839154,Ganyu
东海县,东海,3,518,222300,中国-江苏省-连云港市-东海县,118.77145,34.54215,Donghai
灌云县,灌云,3,518,222200,中国-江苏省-连云港市-灌云县,119.23925,34.28391,Guanyun
灌南县,灌南,3,518,222500,中国-江苏省-连云港市-灌南县,119.35632,34.09,Guannan
淮安市,淮安,2,517,223001,中国-江苏省-淮安市,119.021265,33.597506,Huai'an
清河区,清河,3,517,223001,中国-江苏省-淮安市-清河区,119.00778,33.59949,Qinghe
淮安区,淮安,3,517,223200,中国-江苏省-淮安市-淮安区,119.021265,33.597506,Huai'an
淮阴区,淮阴,3,517,223300,中国-江苏省-淮安市-淮阴区,119.03485,33.63171,Huaiyin
清浦区,清浦,3,517,223002,中国-江苏省-淮安市-清浦区,119.02648,33.55232,Qingpu
涟水县,涟水,3,517,223400,中国-江苏省-淮安市-涟水县,119.26083,33.78094,Lianshui
洪泽县,洪泽,3,517,223100,中国-江苏省-淮安市-洪泽县,118.87344,33.29429,Hongze
盱眙县,盱眙,3,517,211700,中国-江苏省-淮安市-盱眙县,118.54495,33.01086,Xuyi
金湖县,金湖,3,517,211600,中国-江苏省-淮安市-金湖县,119.02307,33.02219,Jinhu
盐城市,盐城,2,515,224005,中国-江苏省-盐城市,120.139998,33.377631,Yancheng
亭湖区,亭湖,3,515,224005,中国-江苏省-盐城市-亭湖区,120.16583,33.37825,Tinghu
盐都区,盐都,3,515,224055,中国-江苏省-盐城市-盐都区,120.15441,33.3373,Yandu
响水县,响水,3,515,224600,中国-江苏省-盐城市-响水县,119.56985,34.20513,Xiangshui
滨海县,滨海,3,515,224500,中国-江苏省-盐城市-滨海县,119.82058,33.98972,Binhai
阜宁县,阜宁,3,515,224400,中国-江苏省-盐城市-阜宁县,119.80175,33.78228,Funing
射阳县,射阳,3,515,224300,中国-江苏省-盐城市-射阳县,120.26043,33.77636,Sheyang
建湖县,建湖,3,515,224700,中国-江苏省-盐城市-建湖县,119.79852,33.47241,Jianhu
东台市,东台,3,515,224200,中国-江苏省-盐城市-东台市,120.32376,32.85078,Dongtai
大丰市,大丰,3,515,224100,中国-江苏省-盐城市-大丰市,120.46594,33.19893,Dafeng
扬州市,扬州,2,514,225002,中国-江苏省-扬州市,119.421003,32.393159,Yangzhou
广陵区,广陵,3,514,225002,中国-江苏省-扬州市-广陵区,119.43186,32.39472,Guangling
邗江区,邗江,3,514,225002,中国-江苏省-扬州市-邗江区,119.39816,32.3765,Hanjiang
江都区,江都,3,514,225200,中国-江苏省-扬州市-江都区,119.567481,32.426564,Jiangdu
宝应县,宝应,3,514,225800,中国-江苏省-扬州市-宝应县,119.31213,33.23549,Baoying
仪征市,仪征,3,514,211400,中国-江苏省-扬州市-仪征市,119.18432,32.27197,Yizheng
高邮市,高邮,3,514,225600,中国-江苏省-扬州市-高邮市,119.45965,32.78135,Gaoyou
镇江市,镇江,2,511,212004,中国-江苏省-镇江市,119.452753,32.204402,Zhenjiang
京口区,京口,3,511,212003,中国-江苏省-镇江市-京口区,119.46947,32.19809,Jingkou
润州区,润州,3,511,212005,中国-江苏省-镇江市-润州区,119.41134,32.19523,Runzhou
丹徒区,丹徒,3,511,212028,中国-江苏省-镇江市-丹徒区,119.43383,32.13183,Dantu
丹阳市,丹阳,3,511,212300,中国-江苏省-镇江市-丹阳市,119.57525,31.99121,Danyang
扬中市,扬中,3,511,212200,中国-江苏省-镇江市-扬中市,119.79718,32.2363,Yangzhong
句容市,句容,3,511,212400,中国-江苏省-镇江市-句容市,119.16482,31.95591,Jurong
泰州市,泰州,2,523,225300,中国-江苏省-泰州市,119.915176,32.484882,Taizhou
海陵区,海陵,3,523,225300,中国-江苏省-泰州市-海陵区,119.91942,32.49101,Hailing
高港区,高港,3,523,225321,中国-江苏省-泰州市-高港区,119.88089,32.31833,Gaogang
姜堰区,姜堰,3,523,225500,中国-江苏省-泰州市-姜堰区,120.148208,32.508483,Jiangyan
兴化市,兴化,3,523,225700,中国-江苏省-泰州市-兴化市,119.85238,32.90944,Xinghua
靖江市,靖江,3,523,214500,中国-江苏省-泰州市-靖江市,120.27291,32.01595,Jingjiang
泰兴市,泰兴,3,523,225400,中国-江苏省-泰州市-泰兴市,120.05194,32.17187,Taixing
宿迁市,宿迁,2,527,223800,中国-江苏省-宿迁市,118.293328,33.945154,Suqian
宿城区,宿城,3,527,223800,中国-江苏省-宿迁市-宿城区,118.29141,33.94219,Sucheng
宿豫区,宿豫,3,527,223800,中国-江苏省-宿迁市-宿豫区,118.32922,33.94673,Suyu
沭阳县,沭阳,3,527,223600,中国-江苏省-宿迁市-沭阳县,118.76873,34.11446,Shuyang
泗阳县,泗阳,3,527,223700,中国-江苏省-宿迁市-泗阳县,118.7033,33.72096,Siyang
泗洪县,泗洪,3,527,223900,中国-江苏省-宿迁市-泗洪县,118.21716,33.45996,Sihong
浙江省,浙江,1,,,中国-浙江省,120.153576,30.287459,Zhejiang
杭州市,杭州,2,571,310026,中国-浙江省-杭州市,120.153576,30.287459,Hangzhou
上城区,上城,3,571,310002,中国-浙江省-杭州市-上城区,120.16922,30.24255,Shangcheng
下城区,下城,3,571,310006,中国-浙江省-杭州市-下城区,120.18096,30.28153,Xiacheng
江干区,江干,3,571,310016,中国-浙江省-杭州市-江干区,120.20517,30.2572,Jianggan
拱墅区,拱墅,3,571,310011,中国-浙江省-杭州市-拱墅区,120.14209,30.31968,Gongshu
西湖区,西湖,3,571,310013,中国-浙江省-杭州市-西湖区,120.12979,30.25949,Xihu
滨江区,滨江,3,571,310051,中国-浙江省-杭州市-滨江区,120.21194,30.20835,Binjiang
萧山区,萧山,3,571,311200,中国-浙江省-杭州市-萧山区,120.26452,30.18505,Xiaoshan
余杭区,余杭,3,571,311100,中国-浙江省-杭州市-余杭区,120.29986,30.41829,Yuhang
桐庐县,桐庐,3,571,311500,中国-浙江省-杭州市-桐庐县,119.68853,29.79779,Tonglu
淳安县,淳安,3,571,311700,中国-浙江省-杭州市-淳安县,119.04257,29.60988,Chun'an
建德市,建德,3,571,311600,中国-浙江省-杭州市-建德市,119.28158,29.47603,Jiande
富阳区,富阳,3,571,311400,中国-浙江省-杭州市-富阳区,119.96041,30.04878,Fuyang
临安市,临安,3,571,311300,中国-浙江省-杭州市-临安市,119.72473,30.23447,Lin'an
宁波市,宁波,2,574,315000,中国-浙江省-宁波市,121.549792,29.868388,Ningbo
海曙区,海曙,3,574,315000,中国-浙江省-宁波市-海曙区,121.55106,29.85977,Haishu
江东区,江东,3,574,315040,中国-浙江省-宁波市-江东区,121.57028,29.86701,Jiangdong
江北区,江北,3,574,315020,中国-浙江省-宁波市-江北区,121.55681,29.88776,Jiangbei
北仑区,北仑,3,574,315800,中国-浙江省-宁波市-北仑区,121.84408,29.90069,Beilun
镇海区,镇海,3,574,315200,中国-浙江省-宁波市-镇海区,121.71615,29.94893,Zhenhai
鄞州区,鄞州,3,574,315100,中国-浙江省-宁波市-鄞州区,121.54754,29.81614,Yinzhou
象山县,象山,3,574,315700,中国-浙江省-宁波市-象山县,121.86917,29.47758,Xiangshan
宁海县,宁海,3,574,315600,中国-浙江省-宁波市-宁海县,121.43072,29.2889,Ninghai
余姚市,余姚,3,574,315400,中国-浙江省-宁波市-余姚市,121.15341,30.03867,Yuyao
慈溪市,慈溪,3,574,315300,中国-浙江省-宁波市-慈溪市,121.26641,30.16959,Cixi
奉化市,奉化,3,574,315500,中国-浙江省-宁波市-奉化市,121.41003,29.65537,Fenghua
温州市,温州,2,577,325000,中国-浙江省-温州市,120.672111,28.000575,Wenzhou
鹿城区,鹿城,3,577,325000,中国-浙江省-温州市-鹿城区,120.65505,28.01489,Lucheng
龙湾区,龙湾,3,577,325013,中国-浙江省-温州市-龙湾区,120.83053,27.91284,Longwan
瓯海区,瓯海,3,577,325005,中国-浙江省-温州市-瓯海区,120.63751,28.00714,Ouhai
洞头县,洞头,3,577,325700,中国-浙江省-温州市-洞头县,121.15606,27.83634,Dongtou
永嘉县,永嘉,3,577,325100,中国-浙江省-温州市-永嘉县,120.69317,28.15456,Yongjia
平阳县,平阳,3,577,325400,中国-浙江省-温州市-平阳县,120.56506,27.66245,Pingyang
苍南县,苍南,3,577,325800,中国-浙江省-温州市-苍南县,120.42608,27.51739,Cangnan
文成县,文成,3,577,325300,中国-浙江省-温州市-文成县,120.09063,27.78678,Wencheng
泰顺县,泰顺,3,577,325500,中国-浙江省-温州市-泰顺县,119.7182,27.55694,Taishun
瑞安市,瑞安,3,577,325200,中国-浙江省-温州市-瑞安市,120.65466,27.78041,Rui'an
乐清市,乐清,3,577,325600,中国-浙江省-温州市-乐清市,120.9617,28.12404,Yueqing
嘉兴市,嘉兴,2,573,314000,中国-浙江省-嘉兴市,120.750865,30.762653,Jiaxing
南湖区,南湖,3,573,314051,中国-浙江省-嘉兴市-南湖区,120.78524,30.74865,Nanhu
秀洲区,秀洲,3,573,314031,中国-浙江省-嘉兴市-秀洲区,120.70867,30.76454,Xiuzhou
嘉善县,嘉善,3,573,314100,中国-浙江省-嘉兴市-嘉善县,120.92559,30.82993,Jiashan
海盐县,海盐,3,573,314300,中国-浙江省-嘉兴市-海盐县,120.9457,30.52547,Haiyan
海宁市,海宁,3,573,314400,中国-浙江省-嘉兴市-海宁市,120.6813,30.5097,Haining
平湖市,平湖,3,573,314200,中国-浙江省-嘉兴市-平湖市,121.02166,30.69618,Pinghu
桐乡市,桐乡,3,573,314500,中国-浙江省-嘉兴市-桐乡市,120.56485,30.6302,Tongxiang
湖州市,湖州,2,572,313000,中国-浙江省-湖州市,120.102398,30.867198,Huzhou
吴兴区,吴兴,3,572,313000,中国-浙江省-湖州市-吴兴区,120.12548,30.85752,Wuxing
南浔区,南浔,3,572,313009,中国-浙江省-湖州市-南浔区,120.42038,30.86686,Nanxun
德清县,德清,3,572,313200,中国-浙江省-湖州市-德清县,119.97836,30.53369,Deqing
长兴县,长兴,3,572,313100,中国-浙江省-湖州市-长兴县,119.90783,31.00606,Changxing
安吉县,安吉,3,572,313300,中国-浙江省-湖州市-安吉县,119.68158,30.63798,Anji
绍兴市,绍兴,2,575,312000,中国-浙江省-绍兴市,120.582112,29.997117,Shaoxing
越城区,越城,3,575,312000,中国-浙江省-绍兴市-越城区,120.5819,29.98895,Yuecheng
柯桥区,柯桥,3,575,312030,中国-浙江省-绍兴市-柯桥区,120.492736,30.08763,Keqiao 
上虞区,上虞,3,575,312300,中国-浙江省-绍兴市-上虞区,120.476075,30.078038,Shangyu
新昌县,新昌,3,575,312500,中国-浙江省-绍兴市-新昌县,120.90435,29.49991,Xinchang
诸暨市,诸暨,3,575,311800,中国-浙江省-绍兴市-诸暨市,120.23629,29.71358,Zhuji
嵊州市,嵊州,3,575,312400,中国-浙江省-绍兴市-嵊州市,120.82174,29.58854,Shengzhou
金华市,金华,2,579,321000,中国-浙江省-金华市,119.649506,29.089524,Jinhua
婺城区,婺城,3,579,321000,中国-浙江省-金华市-婺城区,119.57135,29.09521,Wucheng
金东区,金东,3,579,321000,中国-浙江省-金华市-金东区,119.69302,29.0991,Jindong
武义县,武义,3,579,321200,中国-浙江省-金华市-武义县,119.8164,28.89331,Wuyi
浦江县,浦江,3,579,322200,中国-浙江省-金华市-浦江县,119.89181,29.45353,Pujiang
磐安县,磐安,3,579,322300,中国-浙江省-金华市-磐安县,120.45022,29.05733,Pan'an
兰溪市,兰溪,3,579,321100,中国-浙江省-金华市-兰溪市,119.45965,29.20841,Lanxi
义乌市,义乌,3,579,322000,中国-浙江省-金华市-义乌市,120.0744,29.30558,Yiwu
东阳市,东阳,3,579,322100,中国-浙江省-金华市-东阳市,120.24185,29.28942,Dongyang
永康市,永康,3,579,321300,中国-浙江省-金华市-永康市,120.04727,28.88844,Yongkang
衢州市,衢州,2,570,324002,中国-浙江省-衢州市,118.87263,28.941708,Quzhou
柯城区,柯城,3,570,324100,中国-浙江省-衢州市-柯城区,118.87109,28.96858,Kecheng
衢江区,衢江,3,570,324022,中国-浙江省-衢州市-衢江区,118.9598,28.97977,Qujiang
常山县,常山,3,570,324200,中国-浙江省-衢州市-常山县,118.51025,28.90191,Changshan
开化县,开化,3,570,324300,中国-浙江省-衢州市-开化县,118.41616,29.13785,Kaihua
龙游县,龙游,3,570,324400,中国-浙江省-衢州市-龙游县,119.17221,29.02823,Longyou
江山市,江山,3,570,324100,中国-浙江省-衢州市-江山市,118.62674,28.7386,Jiangshan
舟山市,舟山,2,580,316000,中国-浙江省-舟山市,122.106863,30.016028,Zhoushan
定海区,定海,3,580,316000,中国-浙江省-舟山市-定海区,122.10677,30.01985,Dinghai
普陀区,普陀,3,580,316100,中国-浙江省-舟山市-普陀区,122.30278,29.94908,Putuo
岱山县,岱山,3,580,316200,中国-浙江省-舟山市-岱山县,122.20486,30.24385,Daishan
嵊泗县,嵊泗,3,580,202450,中国-浙江省-舟山市-嵊泗县,122.45129,30.72678,Shengsi
台州市,台州,2,576,318000,中国-浙江省-台州市,121.428599,28.661378,Taizhou
椒江区,椒江,3,576,318000,中国-浙江省-台州市-椒江区,121.44287,28.67301,Jiaojiang
黄岩区,黄岩,3,576,318020,中国-浙江省-台州市-黄岩区,121.25891,28.65077,Huangyan
路桥区,路桥,3,576,318050,中国-浙江省-台州市-路桥区,121.37381,28.58016,Luqiao
玉环县,玉环,3,576,317600,中国-浙江省-台州市-玉环县,121.23242,28.13637,Yuhuan
三门县,三门,3,576,317100,中国-浙江省-台州市-三门县,121.3937,29.1051,Sanmen
天台县,天台,3,576,317200,中国-浙江省-台州市-天台县,121.00848,29.1429,Tiantai
仙居县,仙居,3,576,317300,中国-浙江省-台州市-仙居县,120.72872,28.84672,Xianju
温岭市,温岭,3,576,317500,中国-浙江省-台州市-温岭市,121.38595,28.37176,Wenling
临海市,临海,3,576,317000,中国-浙江省-台州市-临海市,121.13885,28.85603,Linhai
丽水市,丽水,2,578,323000,中国-浙江省-丽水市,119.921786,28.451993,Lishui
莲都区,莲都,3,578,323000,中国-浙江省-丽水市-莲都区,119.9127,28.44583,Liandu
青田县,青田,3,578,323900,中国-浙江省-丽水市-青田县,120.29028,28.13897,Qingtian
缙云县,缙云,3,578,321400,中国-浙江省-丽水市-缙云县,120.09036,28.65944,Jinyun
遂昌县,遂昌,3,578,323300,中国-浙江省-丽水市-遂昌县,119.27606,28.59291,Suichang
松阳县,松阳,3,578,323400,中国-浙江省-丽水市-松阳县,119.48199,28.4494,Songyang
云和县,云和,3,578,323600,中国-浙江省-丽水市-云和县,119.57287,28.11643,Yunhe
庆元县,庆元,3,578,323800,中国-浙江省-丽水市-庆元县,119.06256,27.61842,Qingyuan
景宁畲族自治县,景宁,3,578,323500,中国-浙江省-丽水市-景宁畲族自治县,119.63839,27.97393,Jingning
龙泉市,龙泉,3,578,323700,中国-浙江省-丽水市-龙泉市,119.14163,28.0743,Longquan
舟山群岛新区,舟山新区,2,580,316000,中国-浙江省-舟山群岛新区,122.317657,29.813242,Zhoushan
金塘岛,金塘,3,580,316000,中国-浙江省-舟山群岛新区-金塘岛,121.893373,30.040641,Jintang
六横岛,六横,3,580,316000,中国-浙江省-舟山群岛新区-六横岛,122.14265,29.662938,Liuheng
衢山岛,衢山,3,580,316000,中国-浙江省-舟山群岛新区-衢山岛,122.358425,30.442642,Qushan
舟山本岛西北部,舟山,3,580,316000,中国-浙江省-舟山群岛新区-舟山本岛西北部,122.03064,30.140377,Zhoushan
岱山岛西南部,岱山,3,580,316000,中国-浙江省-舟山群岛新区-岱山岛西南部,122.180123,30.277269,Daishan
泗礁岛,泗礁,3,580,316000,中国-浙江省-舟山群岛新区-泗礁岛,122.45803,30.725112,Sijiao
朱家尖岛,朱家尖,3,580,316000,中国-浙江省-舟山群岛新区-朱家尖岛,122.390636,29.916303,Zhujiajian
洋山岛,洋山,3,580,316000,中国-浙江省-舟山群岛新区-洋山岛,121.995891,30.094637,Yangshan
长涂岛,长涂,3,580,316000,中国-浙江省-舟山群岛新区-长涂岛,122.284681,30.24888,Changtu
虾峙岛,虾峙,3,580,316000,中国-浙江省-舟山群岛新区-虾峙岛,122.244686,29.752941,Xiazhi
安徽省,安徽,1,,,中国-安徽省,117.283042,31.86119,Anhui
合肥市,合肥,2,551,230001,中国-安徽省-合肥市,117.283042,31.86119,Hefei
瑶海区,瑶海,3,551,230011,中国-安徽省-合肥市-瑶海区,117.30947,31.85809,Yaohai
庐阳区,庐阳,3,551,230001,中国-安徽省-合肥市-庐阳区,117.26452,31.87874,Luyang
蜀山区,蜀山,3,551,230031,中国-安徽省-合肥市-蜀山区,117.26104,31.85117,Shushan
包河区,包河,3,551,230041,中国-安徽省-合肥市-包河区,117.30984,31.79502,Baohe
长丰县,长丰,3,551,231100,中国-安徽省-合肥市-长丰县,117.16549,32.47959,Changfeng
肥东县,肥东,3,551,231600,中国-安徽省-合肥市-肥东县,117.47128,31.88525,Feidong
肥西县,肥西,3,551,231200,中国-安徽省-合肥市-肥西县,117.16845,31.72143,Feixi
庐江县,庐江,3,565,231500,中国-安徽省-合肥市-庐江县,117.289844,31.251488,Lujiang
巢湖市,巢湖,3,565,238000,中国-安徽省-合肥市-巢湖市,117.874155,31.600518,Chaohu
芜湖市,芜湖,2,551,241000,中国-安徽省-芜湖市,118.376451,31.326319,Wuhu
镜湖区,镜湖,3,553,241000,中国-安徽省-芜湖市-镜湖区,118.38525,31.34038,Jinghu
弋江区,弋江,3,553,241000,中国-安徽省-芜湖市-弋江区,118.37265,31.31178,Yijiang
鸠江区,鸠江,3,553,241000,中国-安徽省-芜湖市-鸠江区,118.39215,31.36928,Jiujiang
三山区,三山,3,553,241000,中国-安徽省-芜湖市-三山区,118.22509,31.20703,Sanshan
芜湖县,芜湖,3,553,241100,中国-安徽省-芜湖市-芜湖县,118.57525,31.13476,Wuhu
繁昌县,繁昌,3,553,241200,中国-安徽省-芜湖市-繁昌县,118.19982,31.08319,Fanchang
南陵县,南陵,3,553,242400,中国-安徽省-芜湖市-南陵县,118.33688,30.91969,Nanling
无为县,无为,3,565,238300,中国-安徽省-芜湖市-无为县,117.911432,31.303075,Wuwei
蚌埠市,蚌埠,2,552,233000,中国-安徽省-蚌埠市,117.36237,32.934037,Bengbu
龙子湖区,龙子湖,3,552,233000,中国-安徽省-蚌埠市-龙子湖区,117.39379,32.94301,Longzihu
蚌山区,蚌山,3,552,233000,中国-安徽省-蚌埠市-蚌山区,117.36767,32.94411,Bengshan
禹会区,禹会,3,552,233010,中国-安徽省-蚌埠市-禹会区,117.35315,32.93336,Yuhui
淮上区,淮上,3,552,233002,中国-安徽省-蚌埠市-淮上区,117.35983,32.96423,Huaishang
怀远县,怀远,3,552,233400,中国-安徽省-蚌埠市-怀远县,117.20507,32.97007,Huaiyuan
五河县,五河,3,552,233300,中国-安徽省-蚌埠市-五河县,117.89144,33.14457,Wuhe
固镇县,固镇,3,552,233700,中国-安徽省-蚌埠市-固镇县,117.31558,33.31803,Guzhen
淮南市,淮南,2,554,232001,中国-安徽省-淮南市,117.025449,32.645947,Huainan
大通区,大通,3,554,232033,中国-安徽省-淮南市-大通区,117.05255,32.63265,Datong
田家庵区,田家庵,3,554,232000,中国-安徽省-淮南市-田家庵区,117.01739,32.64697,Tianjiaan
谢家集区,谢家集,3,554,232052,中国-安徽省-淮南市-谢家集区,116.86377,32.59818,Xiejiaji
八公山区,八公山,3,554,232072,中国-安徽省-淮南市-八公山区,116.83694,32.62941,Bagongshan
潘集区,潘集,3,554,232082,中国-安徽省-淮南市-潘集区,116.81622,32.78287,Panji
凤台县,凤台,3,554,232100,中国-安徽省-淮南市-凤台县,116.71569,32.70752,Fengtai
马鞍山市,马鞍山,2,555,243001,中国-安徽省-马鞍山市,118.507906,31.689362,Ma'anshan
花山区,花山,3,555,243000,中国-安徽省-马鞍山市-花山区,118.51231,31.7001,Huashan
雨山区,雨山,3,555,243071,中国-安徽省-马鞍山市-雨山区,118.49869,31.68219,Yushan
博望区,博望,3,555,243131,中国-安徽省-马鞍山市-博望区,118.844387,31.561871,Bowang
当涂县,当涂,3,555,243100,中国-安徽省-马鞍山市-当涂县,118.49786,31.57098,Dangtu
含山县,含山,3,555,238100,中国-安徽省-马鞍山市-含山县,118.105545,31.727758,Hanshan 
和县,和县,3,555,238200,中国-安徽省-马鞍山市-和县,118.351405,31.741794,Hexian
淮北市,淮北,2,561,235000,中国-安徽省-淮北市,116.794664,33.971707,Huaibei
杜集区,杜集,3,561,235000,中国-安徽省-淮北市-杜集区,116.82998,33.99363,Duji
相山区,相山,3,561,235000,中国-安徽省-淮北市-相山区,116.79464,33.95979,Xiangshan
烈山区,烈山,3,561,235000,中国-安徽省-淮北市-烈山区,116.81448,33.89355,Lieshan
濉溪县,濉溪,3,561,235100,中国-安徽省-淮北市-濉溪县,116.76785,33.91455,Suixi
铜陵市,铜陵,2,562,244000,中国-安徽省-铜陵市,117.816576,30.929935,Tongling
铜官山区,铜官山,3,562,244000,中国-安徽省-铜陵市-铜官山区,117.81525,30.93423,Tongguanshan
狮子山区,狮子山,3,562,244000,中国-安徽省-铜陵市-狮子山区,117.89178,30.92631,Shizishan
郊区,郊区,3,562,244000,中国-安徽省-铜陵市-郊区,117.80868,30.91976,Jiaoqu
铜陵县,铜陵,3,562,244100,中国-安徽省-铜陵市-铜陵县,117.79113,30.95365,Tongling
安庆市,安庆,2,556,246001,中国-安徽省-安庆市,117.053571,30.524816,Anqing
迎江区,迎江,3,556,246001,中国-安徽省-安庆市-迎江区,117.0493,30.50421,Yingjiang
大观区,大观,3,556,246002,中国-安徽省-安庆市-大观区,117.03426,30.51216,Daguan
宜秀区,宜秀,3,556,246003,中国-安徽省-安庆市-宜秀区,117.06127,30.50783,Yixiu
怀宁县,怀宁,3,556,246100,中国-安徽省-安庆市-怀宁县,116.82968,30.73376,Huaining
枞阳县,枞阳,3,556,246700,中国-安徽省-安庆市-枞阳县,117.22015,30.69956,Zongyang
潜山县,潜山,3,556,246300,中国-安徽省-安庆市-潜山县,116.57574,30.63037,Qianshan
太湖县,太湖,3,556,246400,中国-安徽省-安庆市-太湖县,116.3088,30.4541,Taihu
宿松县,宿松,3,556,246500,中国-安徽省-安庆市-宿松县,116.12915,30.1536,Susong
望江县,望江,3,556,246200,中国-安徽省-安庆市-望江县,116.68814,30.12585,Wangjiang
岳西县,岳西,3,556,246600,中国-安徽省-安庆市-岳西县,116.35995,30.84983,Yuexi
桐城市,桐城,3,556,231400,中国-安徽省-安庆市-桐城市,116.95071,31.05216,Tongcheng
黄山市,黄山,2,559,245000,中国-安徽省-黄山市,118.317325,29.709239,Huangshan
屯溪区,屯溪,3,559,245000,中国-安徽省-黄山市-屯溪区,118.33368,29.71138,Tunxi
黄山区,黄山,3,559,242700,中国-安徽省-黄山市-黄山区,118.1416,30.2729,Huangshan
徽州区,徽州,3,559,245061,中国-安徽省-黄山市-徽州区,118.33654,29.82784,Huizhou
歙县,歙县,3,559,245200,中国-安徽省-黄山市-歙县,118.43676,29.86745,Shexian
休宁县,休宁,3,559,245400,中国-安徽省-黄山市-休宁县,118.18136,29.78607,Xiuning
黟县,黟县,3,559,245500,中国-安徽省-黄山市-黟县,117.94137,29.92588,Yixian
祁门县,祁门,3,559,245600,中国-安徽省-黄山市-祁门县,117.71847,29.85723,Qimen
滁州市,滁州,2,550,239000,中国-安徽省-滁州市,118.316264,32.303627,Chuzhou
琅琊区,琅琊,3,550,239000,中国-安徽省-滁州市-琅琊区,118.30538,32.29521,Langya
南谯区,南谯,3,550,239000,中国-安徽省-滁州市-南谯区,118.31222,32.31861,Nanqiao
来安县,来安,3,550,239200,中国-安徽省-滁州市-来安县,118.43438,32.45176,Lai'an
全椒县,全椒,3,550,239500,中国-安徽省-滁州市-全椒县,118.27291,32.08524,Quanjiao
定远县,定远,3,550,233200,中国-安徽省-滁州市-定远县,117.68035,32.52488,Dingyuan
凤阳县,凤阳,3,550,233100,中国-安徽省-滁州市-凤阳县,117.56454,32.86507,Fengyang
天长市,天长,3,550,239300,中国-安徽省-滁州市-天长市,118.99868,32.69124,Tianchang
明光市,明光,3,550,239400,中国-安徽省-滁州市-明光市,117.99093,32.77819,Mingguang
阜阳市,阜阳,2,558,236033,中国-安徽省-阜阳市,115.819729,32.896969,Fuyang
颍州区,颍州,3,558,236001,中国-安徽省-阜阳市-颍州区,115.80694,32.88346,Yingzhou
颍东区,颍东,3,558,236058,中国-安徽省-阜阳市-颍东区,115.85659,32.91296,Yingdong
颍泉区,颍泉,3,558,236045,中国-安徽省-阜阳市-颍泉区,115.80712,32.9249,Yingquan
临泉县,临泉,3,558,236400,中国-安徽省-阜阳市-临泉县,115.26232,33.06758,Linquan
太和县,太和,3,558,236600,中国-安徽省-阜阳市-太和县,115.62191,33.16025,Taihe
阜南县,阜南,3,558,236300,中国-安徽省-阜阳市-阜南县,115.58563,32.63551,Funan
颍上县,颍上,3,558,236200,中国-安徽省-阜阳市-颍上县,116.26458,32.62998,Yingshang
界首市,界首,3,558,236500,中国-安徽省-阜阳市-界首市,115.37445,33.25714,Jieshou
宿州市,宿州,2,557,234000,中国-安徽省-宿州市,116.984084,33.633891,Suzhou
桥区,桥,3,557,234000,中国-安徽省-宿州市-桥区,116.97731,33.64058,Yongqiao
砀山县,砀山,3,557,235300,中国-安徽省-宿州市-砀山县,116.35363,34.42356,Dangshan
萧县,萧县,3,557,235200,中国-安徽省-宿州市-萧县,116.94546,34.1879,Xiaoxian
灵璧县,灵璧,3,557,234200,中国-安徽省-宿州市-灵璧县,117.55813,33.54339,Lingbi
泗县,泗县,3,557,234300,中国-安徽省-宿州市-泗县,117.91033,33.48295,Sixian
六安市,六安,2,564,237000,中国-安徽省-六安市,116.507676,31.752889,Lu'an
金安区,金安,3,564,237005,中国-安徽省-六安市-金安区,116.50912,31.75573,Jin'an
裕安区,裕安,3,564,237010,中国-安徽省-六安市-裕安区,116.47985,31.73787,Yu'an
寿县,寿县,3,564,232200,中国-安徽省-六安市-寿县,116.78466,32.57653,Shouxian
霍邱县,霍邱,3,564,237400,中国-安徽省-六安市-霍邱县,116.27795,32.353,Huoqiu
舒城县,舒城,3,564,231300,中国-安徽省-六安市-舒城县,116.94491,31.46413,Shucheng
金寨县,金寨,3,564,237300,中国-安徽省-六安市-金寨县,115.93463,31.7351,Jinzhai
霍山县,霍山,3,564,237200,中国-安徽省-六安市-霍山县,116.33291,31.3929,Huoshan
亳州市,亳州,2,558,236802,中国-安徽省-亳州市,115.782939,33.869338,Bozhou
谯城区,谯城,3,558,236800,中国-安徽省-亳州市-谯城区,115.77941,33.87532,Qiaocheng
涡阳县,涡阳,3,558,233600,中国-安徽省-亳州市-涡阳县,116.21682,33.50911,Guoyang
蒙城县,蒙城,3,558,233500,中国-安徽省-亳州市-蒙城县,116.5646,33.26477,Mengcheng
利辛县,利辛,3,558,236700,中国-安徽省-亳州市-利辛县,116.208,33.14198,Lixin
池州市,池州,2,566,247100,中国-安徽省-池州市,117.489157,30.656037,Chizhou
贵池区,贵池,3,566,247100,中国-安徽省-池州市-贵池区,117.48722,30.65283,Guichi
东至县,东至,3,566,247200,中国-安徽省-池州市-东至县,117.02719,30.0969,Dongzhi
石台县,石台,3,566,245100,中国-安徽省-池州市-石台县,117.48666,30.21042,Shitai
青阳县,青阳,3,566,242800,中国-安徽省-池州市-青阳县,117.84744,30.63932,Qingyang
宣城市,宣城,2,563,242000,中国-安徽省-宣城市,118.757995,30.945667,Xuancheng
宣州区,宣州,3,563,242000,中国-安徽省-宣城市-宣州区,118.75462,30.94439,Xuanzhou
郎溪县,郎溪,3,563,242100,中国-安徽省-宣城市-郎溪县,119.17923,31.12599,Langxi
广德县,广德,3,563,242200,中国-安徽省-宣城市-广德县,119.41769,30.89371,Guangde
泾县,泾县,3,563,242500,中国-安徽省-宣城市-泾县,118.41964,30.69498,Jingxian
绩溪县,绩溪,3,563,245300,中国-安徽省-宣城市-绩溪县,118.59765,30.07069,Jixi
旌德县,旌德,3,563,242600,中国-安徽省-宣城市-旌德县,118.54299,30.28898,Jingde
宁国市,宁国,3,563,242300,中国-安徽省-宣城市-宁国市,118.98349,30.6238,Ningguo
福建省,福建,1,,,中国-福建省,119.306239,26.075302,Fujian
福州市,福州,2,591,350001,中国-福建省-福州市,119.306239,26.075302,Fuzhou
鼓楼区,鼓楼,3,591,350001,中国-福建省-福州市-鼓楼区,119.30384,26.08225,Gulou
台江区,台江,3,591,350004,中国-福建省-福州市-台江区,119.30899,26.06204,Taijiang
仓山区,仓山,3,591,350007,中国-福建省-福州市-仓山区,119.31543,26.04335,Cangshan
马尾区,马尾,3,591,350015,中国-福建省-福州市-马尾区,119.4555,25.98942,Mawei
晋安区,晋安,3,591,350011,中国-福建省-福州市-晋安区,119.32828,26.0818,Jin'an
闽侯县,闽侯,3,591,350100,中国-福建省-福州市-闽侯县,119.13388,26.15014,Minhou
连江县,连江,3,591,350500,中国-福建省-福州市-连江县,119.53433,26.19466,Lianjiang
罗源县,罗源,3,591,350600,中国-福建省-福州市-罗源县,119.5509,26.48752,Luoyuan
闽清县,闽清,3,591,350800,中国-福建省-福州市-闽清县,118.8623,26.21901,Minqing
永泰县,永泰,3,591,350700,中国-福建省-福州市-永泰县,118.936,25.86816,Yongtai
平潭县,平潭,3,591,350400,中国-福建省-福州市-平潭县,119.791197,25.503672,Pingtan
福清市,福清,3,591,350300,中国-福建省-福州市-福清市,119.38507,25.72086,Fuqing
长乐市,长乐,3,591,350200,中国-福建省-福州市-长乐市,119.52313,25.96276,Changle
厦门市,厦门,2,592,361003,中国-福建省-厦门市,118.11022,24.490474,Xiamen
思明区,思明,3,592,361001,中国-福建省-厦门市-思明区,118.08233,24.44543,Siming
海沧区,海沧,3,592,361026,中国-福建省-厦门市-海沧区,118.03289,24.48461,Haicang
湖里区,湖里,3,592,361006,中国-福建省-厦门市-湖里区,118.14621,24.51253,Huli
集美区,集美,3,592,361021,中国-福建省-厦门市-集美区,118.09719,24.57584,Jimei
同安区,同安,3,592,361100,中国-福建省-厦门市-同安区,118.15197,24.72308,Tong'an
翔安区,翔安,3,592,361101,中国-福建省-厦门市-翔安区,118.24783,24.61863,Xiang'an
莆田市,莆田,2,594,351100,中国-福建省-莆田市,119.007558,25.431011,Putian
城厢区,城厢,3,594,351100,中国-福建省-莆田市-城厢区,118.99462,25.41872,Chengxiang
涵江区,涵江,3,594,351111,中国-福建省-莆田市-涵江区,119.11621,25.45876,Hanjiang
荔城区,荔城,3,594,351100,中国-福建省-莆田市-荔城区,119.01339,25.43369,Licheng
秀屿区,秀屿,3,594,351152,中国-福建省-莆田市-秀屿区,119.10553,25.31831,Xiuyu
仙游县,仙游,3,594,351200,中国-福建省-莆田市-仙游县,118.69177,25.36214,Xianyou
三明市,三明,2,598,365000,中国-福建省-三明市,117.635001,26.265444,Sanming
梅列区,梅列,3,598,365000,中国-福建省-三明市-梅列区,117.64585,26.27171,Meilie
三元区,三元,3,598,365001,中国-福建省-三明市-三元区,117.60788,26.23372,Sanyuan
明溪县,明溪,3,598,365200,中国-福建省-三明市-明溪县,117.20498,26.35294,Mingxi
清流县,清流,3,598,365300,中国-福建省-三明市-清流县,116.8146,26.17144,Qingliu
宁化县,宁化,3,598,365400,中国-福建省-三明市-宁化县,116.66101,26.25874,Ninghua
大田县,大田,3,598,366100,中国-福建省-三明市-大田县,117.8471,25.6926,Datian
尤溪县,尤溪,3,598,365100,中国-福建省-三明市-尤溪县,118.19049,26.17002,Youxi
沙县,沙县,3,598,365500,中国-福建省-三明市-沙县,117.79266,26.39615,Shaxian
将乐县,将乐,3,598,353300,中国-福建省-三明市-将乐县,117.47317,26.72837,Jiangle
泰宁县,泰宁,3,598,354400,中国-福建省-三明市-泰宁县,117.17578,26.9001,Taining
建宁县,建宁,3,598,354500,中国-福建省-三明市-建宁县,116.84603,26.83091,Jianning
永安市,永安,3,598,366000,中国-福建省-三明市-永安市,117.36517,25.94136,Yong'an
泉州市,泉州,2,595,362000,中国-福建省-泉州市,118.589421,24.908853,Quanzhou
鲤城区,鲤城,3,595,362000,中国-福建省-泉州市-鲤城区,118.56591,24.88741,Licheng
丰泽区,丰泽,3,595,362000,中国-福建省-泉州市-丰泽区,118.61328,24.89119,Fengze
洛江区,洛江,3,595,362011,中国-福建省-泉州市-洛江区,118.67111,24.93984,Luojiang
泉港区,泉港,3,595,362114,中国-福建省-泉州市-泉港区,118.91586,25.12005,Quangang
惠安县,惠安,3,595,362100,中国-福建省-泉州市-惠安县,118.79687,25.03059,Hui'an
安溪县,安溪,3,595,362400,中国-福建省-泉州市-安溪县,118.18719,25.05627,Anxi
永春县,永春,3,595,362600,中国-福建省-泉州市-永春县,118.29437,25.32183,Yongchun
德化县,德化,3,595,362500,中国-福建省-泉州市-德化县,118.24176,25.49224,Dehua
金门县,金门,3,,,中国-福建省-泉州市-金门县,118.32263,24.42922,Jinmen
石狮市,石狮,3,595,362700,中国-福建省-泉州市-石狮市,118.64779,24.73242,Shishi
晋江市,晋江,3,595,362200,中国-福建省-泉州市-晋江市,118.55194,24.78141,Jinjiang
南安市,南安,3,595,362300,中国-福建省-泉州市-南安市,118.38589,24.96055,Nan'an
漳州市,漳州,2,596,363005,中国-福建省-漳州市,117.661801,24.510897,Zhangzhou
芗城区,芗城,3,596,363000,中国-福建省-漳州市-芗城区,117.65402,24.51081,Xiangcheng
龙文区,龙文,3,596,363005,中国-福建省-漳州市-龙文区,117.70971,24.50323,Longwen
云霄县,云霄,3,596,363300,中国-福建省-漳州市-云霄县,117.34051,23.95534,Yunxiao
漳浦县,漳浦,3,596,363200,中国-福建省-漳州市-漳浦县,117.61367,24.11706,Zhangpu
诏安县,诏安,3,596,363500,中国-福建省-漳州市-诏安县,117.17501,23.71148,Zhao'an
长泰县,长泰,3,596,363900,中国-福建省-漳州市-长泰县,117.75924,24.62526,Changtai
东山县,东山,3,596,363400,中国-福建省-漳州市-东山县,117.42822,23.70109,Dongshan
南靖县,南靖,3,596,363600,中国-福建省-漳州市-南靖县,117.35736,24.51448,Nanjing
平和县,平和,3,596,363700,中国-福建省-漳州市-平和县,117.3124,24.36395,Pinghe
华安县,华安,3,596,363800,中国-福建省-漳州市-华安县,117.54077,25.00563,Hua'an
龙海市,龙海,3,596,363100,中国-福建省-漳州市-龙海市,117.81802,24.44655,Longhai
南平市,南平,2,599,353000,中国-福建省-南平市,118.178459,26.635627,Nanping
延平区,延平,3,600,353000,中国-福建省-南平市-延平区,118.18189,26.63745,Yanping
建阳区,建阳,3,599,354200,中国-福建省-南平市-建阳区,118.12267,27.332067,Jianyang
顺昌县,顺昌,3,605,353200,中国-福建省-南平市-顺昌县,117.8103,26.79298,Shunchang
浦城县,浦城,3,606,353400,中国-福建省-南平市-浦城县,118.54007,27.91888,Pucheng
光泽县,光泽,3,607,354100,中国-福建省-南平市-光泽县,117.33346,27.54231,Guangze
松溪县,松溪,3,608,353500,中国-福建省-南平市-松溪县,118.78533,27.52624,Songxi
政和县,政和,3,609,353600,中国-福建省-南平市-政和县,118.85571,27.36769,Zhenghe
邵武市,邵武,3,601,354000,中国-福建省-南平市-邵武市,117.4924,27.34033,Shaowu
武夷山市,武夷山,3,602,354300,中国-福建省-南平市-武夷山市,118.03665,27.75543,Wuyishan
建瓯市,建瓯,3,603,353100,中国-福建省-南平市-建瓯市,118.29766,27.02301,Jianou
龙岩市,龙岩,2,597,364000,中国-福建省-龙岩市,117.02978,25.091603,Longyan
新罗区,新罗,3,597,364000,中国-福建省-龙岩市-新罗区,117.03693,25.09834,Xinluo
长汀县,长汀,3,597,366300,中国-福建省-龙岩市-长汀县,116.35888,25.82773,Changting
永定区,永定,3,597,364100,中国-福建省-龙岩市-永定区,116.73199,24.72302,Yongding
上杭县,上杭,3,597,364200,中国-福建省-龙岩市-上杭县,116.42022,25.04943,Shanghang
武平县,武平,3,597,364300,中国-福建省-龙岩市-武平县,116.10229,25.09244,Wuping
连城县,连城,3,597,366200,中国-福建省-龙岩市-连城县,116.75454,25.7103,Liancheng
漳平市,漳平,3,597,364400,中国-福建省-龙岩市-漳平市,117.41992,25.29109,Zhangping
宁德市,宁德,2,593,352100,中国-福建省-宁德市,119.527082,26.65924,Ningde
蕉城区,蕉城,3,593,352100,中国-福建省-宁德市-蕉城区,119.52643,26.66048,Jiaocheng
霞浦县,霞浦,3,593,355100,中国-福建省-宁德市-霞浦县,119.99893,26.88578,Xiapu
古田县,古田,3,593,352200,中国-福建省-宁德市-古田县,118.74688,26.57682,Gutian
屏南县,屏南,3,593,352300,中国-福建省-宁德市-屏南县,118.98861,26.91099,Pingnan
寿宁县,寿宁,3,593,355500,中国-福建省-宁德市-寿宁县,119.5039,27.45996,Shouning
周宁县,周宁,3,593,355400,中国-福建省-宁德市-周宁县,119.33837,27.10664,Zhouning
柘荣县,柘荣,3,593,355300,中国-福建省-宁德市-柘荣县,119.89971,27.23543,Zherong
福安市,福安,3,593,355000,中国-福建省-宁德市-福安市,119.6495,27.08673,Fu'an
福鼎市,福鼎,3,593,355200,中国-福建省-宁德市-福鼎市,120.21664,27.3243,Fuding
江西省,江西,1,,,中国-江西省,115.892151,28.676493,Jiangxi
南昌市,南昌,2,791,330008,中国-江西省-南昌市,115.892151,28.676493,Nanchang
东湖区,东湖,3,791,330006,中国-江西省-南昌市-东湖区,115.8988,28.68505,Donghu
西湖区,西湖,3,791,330009,中国-江西省-南昌市-西湖区,115.87728,28.65688,Xihu
青云谱区,青云谱,3,791,330001,中国-江西省-南昌市-青云谱区,115.915,28.63199,Qingyunpu
湾里区,湾里,3,791,330004,中国-江西省-南昌市-湾里区,115.73104,28.71529,Wanli
青山湖区,青山湖,3,791,330029,中国-江西省-南昌市-青山湖区,115.9617,28.68206,Qingshanhu
南昌县,南昌,3,791,330200,中国-江西省-南昌市-南昌县,115.94393,28.54559,Nanchang
新建县,新建,3,791,330100,中国-江西省-南昌市-新建县,115.81546,28.69248,Xinjian
安义县,安义,3,791,330500,中国-江西省-南昌市-安义县,115.54879,28.84602,Anyi
进贤县,进贤,3,791,331700,中国-江西省-南昌市-进贤县,116.24087,28.37679,Jinxian
景德镇市,景德镇,2,798,333000,中国-江西省-景德镇市,117.214664,29.29256,Jingdezhen
昌江区,昌江,3,799,333000,中国-江西省-景德镇市-昌江区,117.18359,29.27321,Changjiang
珠山区,珠山,3,800,333000,中国-江西省-景德镇市-珠山区,117.20233,29.30127,Zhushan
浮梁县,浮梁,3,802,333400,中国-江西省-景德镇市-浮梁县,117.21517,29.35156,Fuliang
乐平市,乐平,3,801,333300,中国-江西省-景德镇市-乐平市,117.12887,28.96295,Leping
萍乡市,萍乡,2,799,337000,中国-江西省-萍乡市,113.852186,27.622946,Pingxiang
安源区,安源,3,800,337000,中国-江西省-萍乡市-安源区,113.89135,27.61653,Anyuan
湘东区,湘东,3,801,337016,中国-江西省-萍乡市-湘东区,113.73294,27.64007,Xiangdong
莲花县,莲花,3,802,337100,中国-江西省-萍乡市-莲花县,113.96142,27.12866,Lianhua
上栗县,上栗,3,803,337009,中国-江西省-萍乡市-上栗县,113.79403,27.87467,Shangli
芦溪县,芦溪,3,804,337053,中国-江西省-萍乡市-芦溪县,114.02951,27.63063,Luxi
九江市,九江,2,792,332000,中国-江西省-九江市,115.992811,29.712034,Jiujiang
庐山区,庐山,3,792,332005,中国-江西省-九江市-庐山区,115.98904,29.67177,Lushan
浔阳区,浔阳,3,792,332000,中国-江西省-九江市-浔阳区,115.98986,29.72786,Xunyang
九江县,九江,3,792,332100,中国-江西省-九江市-九江县,115.91128,29.60852,Jiujiang
武宁县,武宁,3,792,332300,中国-江西省-九江市-武宁县,115.10061,29.2584,Wuning
修水县,修水,3,792,332400,中国-江西省-九江市-修水县,114.54684,29.02539,Xiushui
永修县,永修,3,792,330300,中国-江西省-九江市-永修县,115.80911,29.02093,Yongxiu
德安县,德安,3,792,330400,中国-江西省-九江市-德安县,115.75601,29.31341,De'an
星子县,星子,3,792,332800,中国-江西省-九江市-星子县,116.04492,29.44608,Xingzi
都昌县,都昌,3,792,332600,中国-江西省-九江市-都昌县,116.20401,29.27327,Duchang
湖口县,湖口,3,792,332500,中国-江西省-九江市-湖口县,116.21853,29.73818,Hukou
彭泽县,彭泽,3,792,332700,中国-江西省-九江市-彭泽县,116.55011,29.89589,Pengze
瑞昌市,瑞昌,3,792,332200,中国-江西省-九江市-瑞昌市,115.66705,29.67183,Ruichang
共青城市,共青城,3,792,332020,中国-江西省-九江市-共青城市,115.801939,29.238785,Gongqingcheng
新余市,新余,2,790,338025,中国-江西省-新余市,114.930835,27.810834,Xinyu
渝水区,渝水,3,790,338025,中国-江西省-新余市-渝水区,114.944,27.80098,Yushui
分宜县,分宜,3,790,336600,中国-江西省-新余市-分宜县,114.69189,27.81475,Fenyi
鹰潭市,鹰潭,2,701,335000,中国-江西省-鹰潭市,117.033838,28.238638,Yingtan
月湖区,月湖,3,701,335000,中国-江西省-鹰潭市-月湖区,117.03732,28.23913,Yuehu
余江县,余江,3,701,335200,中国-江西省-鹰潭市-余江县,116.81851,28.21034,Yujiang
贵溪市,贵溪,3,701,335400,中国-江西省-鹰潭市-贵溪市,117.24246,28.2926,Guixi
赣州市,赣州,2,797,341000,中国-江西省-赣州市,114.940278,25.85097,Ganzhou
章贡区,章贡,3,797,341000,中国-江西省-赣州市-章贡区,114.94284,25.8624,Zhanggong
南康区,南康,3,797,341400,中国-江西省-赣州市-南康区,114.756933,25.661721,Nankang
赣县,赣县,3,797,341100,中国-江西省-赣州市-赣县,115.01171,25.86149,Ganxian
信丰县,信丰,3,797,341600,中国-江西省-赣州市-信丰县,114.92279,25.38612,Xinfeng
大余县,大余,3,797,341500,中国-江西省-赣州市-大余县,114.35757,25.39561,Dayu
上犹县,上犹,3,797,341200,中国-江西省-赣州市-上犹县,114.54138,25.79567,Shangyou
崇义县,崇义,3,797,341300,中国-江西省-赣州市-崇义县,114.30835,25.68186,Chongyi
安远县,安远,3,797,342100,中国-江西省-赣州市-安远县,115.39483,25.1371,Anyuan
龙南县,龙南,3,797,341700,中国-江西省-赣州市-龙南县,114.78994,24.91086,Longnan
定南县,定南,3,797,341900,中国-江西省-赣州市-定南县,115.02713,24.78395,Dingnan
全南县,全南,3,797,341800,中国-江西省-赣州市-全南县,114.5292,24.74324,Quannan
宁都县,宁都,3,797,342800,中国-江西省-赣州市-宁都县,116.01565,26.47227,Ningdu
于都县,于都,3,797,342300,中国-江西省-赣州市-于都县,115.41415,25.95257,Yudu
兴国县,兴国,3,797,342400,中国-江西省-赣州市-兴国县,115.36309,26.33776,Xingguo
会昌县,会昌,3,797,342600,中国-江西省-赣州市-会昌县,115.78555,25.60068,Huichang
寻乌县,寻乌,3,797,342200,中国-江西省-赣州市-寻乌县,115.64852,24.95513,Xunwu
石城县,石城,3,797,342700,中国-江西省-赣州市-石城县,116.3442,26.32617,Shicheng
瑞金市,瑞金,3,797,342500,中国-江西省-赣州市-瑞金市,116.02703,25.88557,Ruijin
吉安市,吉安,2,796,343000,中国-江西省-吉安市,114.986373,27.111699,Ji'an
吉州区,吉州,3,796,343000,中国-江西省-吉安市-吉州区,114.97598,27.10669,Jizhou
青原区,青原,3,796,343009,中国-江西省-吉安市-青原区,115.01747,27.10577,Qingyuan
吉安县,吉安,3,796,343100,中国-江西省-吉安市-吉安县,114.90695,27.04048,Ji'an
吉水县,吉水,3,796,331600,中国-江西省-吉安市-吉水县,115.1343,27.21071,Jishui
峡江县,峡江,3,796,331409,中国-江西省-吉安市-峡江县,115.31723,27.576,Xiajiang
新干县,新干,3,796,331300,中国-江西省-吉安市-新干县,115.39306,27.74092,Xingan
永丰县,永丰,3,796,331500,中国-江西省-吉安市-永丰县,115.44238,27.31785,Yongfeng
泰和县,泰和,3,796,343700,中国-江西省-吉安市-泰和县,114.90789,26.79113,Taihe
遂川县,遂川,3,796,343900,中国-江西省-吉安市-遂川县,114.51629,26.32598,Suichuan
万安县,万安,3,796,343800,中国-江西省-吉安市-万安县,114.78659,26.45931,Wan'an
安福县,安福,3,796,343200,中国-江西省-吉安市-安福县,114.61956,27.39276,Anfu
永新县,永新,3,796,343400,中国-江西省-吉安市-永新县,114.24246,26.94488,Yongxin
井冈山市,井冈山,3,796,343600,中国-江西省-吉安市-井冈山市,114.28949,26.74804,Jinggangshan
宜春市,宜春,2,795,336000,中国-江西省-宜春市,114.391136,27.8043,Yichun
袁州区,袁州,3,795,336000,中国-江西省-宜春市-袁州区,114.38246,27.79649,Yuanzhou
奉新县,奉新,3,795,330700,中国-江西省-宜春市-奉新县,115.40036,28.6879,Fengxin
万载县,万载,3,795,336100,中国-江西省-宜春市-万载县,114.4458,28.10656,Wanzai
上高县,上高,3,795,336400,中国-江西省-宜春市-上高县,114.92459,28.23423,Shanggao
宜丰县,宜丰,3,795,336300,中国-江西省-宜春市-宜丰县,114.7803,28.38555,Yifeng
靖安县,靖安,3,795,330600,中国-江西省-宜春市-靖安县,115.36279,28.86167,Jing'an
铜鼓县,铜鼓,3,795,336200,中国-江西省-宜春市-铜鼓县,114.37036,28.52311,Tonggu
丰城市,丰城,3,795,331100,中国-江西省-宜春市-丰城市,115.77114,28.15918,Fengcheng
樟树市,樟树,3,795,331200,中国-江西省-宜春市-樟树市,115.5465,28.05332,Zhangshu
高安市,高安,3,795,330800,中国-江西省-宜春市-高安市,115.3753,28.4178,Gao'an
抚州市,抚州,2,794,344000,中国-江西省-抚州市,116.358351,27.98385,Fuzhou
临川区,临川,3,794,344000,中国-江西省-抚州市-临川区,116.35919,27.97721,Linchuan
南城县,南城,3,794,344700,中国-江西省-抚州市-南城县,116.64419,27.55381,Nancheng
黎川县,黎川,3,794,344600,中国-江西省-抚州市-黎川县,116.90771,27.28232,Lichuan
南丰县,南丰,3,794,344500,中国-江西省-抚州市-南丰县,116.5256,27.21842,Nanfeng
崇仁县,崇仁,3,794,344200,中国-江西省-抚州市-崇仁县,116.06021,27.75962,Chongren
乐安县,乐安,3,794,344300,中国-江西省-抚州市-乐安县,115.83108,27.42812,Le'an
宜黄县,宜黄,3,794,344400,中国-江西省-抚州市-宜黄县,116.23626,27.55487,Yihuang
金溪县,金溪,3,794,344800,中国-江西省-抚州市-金溪县,116.77392,27.90753,Jinxi
资溪县,资溪,3,794,335300,中国-江西省-抚州市-资溪县,117.06939,27.70493,Zixi
东乡县,东乡,3,794,331800,中国-江西省-抚州市-东乡县,116.59039,28.23614,Dongxiang
广昌县,广昌,3,794,344900,中国-江西省-抚州市-广昌县,116.32547,26.8341,Guangchang
上饶市,上饶,2,793,334000,中国-江西省-上饶市,117.971185,28.44442,Shangrao
信州区,信州,3,793,334000,中国-江西省-上饶市-信州区,117.96682,28.43121,Xinzhou
上饶县,上饶,3,793,334100,中国-江西省-上饶市-上饶县,117.90884,28.44856,Shangrao
广丰县,广丰,3,793,334600,中国-江西省-上饶市-广丰县,118.19158,28.43766,Guangfeng
玉山县,玉山,3,793,334700,中国-江西省-上饶市-玉山县,118.24462,28.6818,Yushan
铅山县,铅山,3,793,334500,中国-江西省-上饶市-铅山县,117.70996,28.31549,Yanshan
横峰县,横峰,3,793,334300,中国-江西省-上饶市-横峰县,117.5964,28.40716,Hengfeng
弋阳县,弋阳,3,793,334400,中国-江西省-上饶市-弋阳县,117.45929,28.37451,Yiyang
余干县,余干,3,793,335100,中国-江西省-上饶市-余干县,116.69555,28.70206,Yugan
鄱阳县,鄱阳,3,793,333100,中国-江西省-上饶市-鄱阳县,116.69967,29.0118,Poyang
万年县,万年,3,793,335500,中国-江西省-上饶市-万年县,117.06884,28.69537,Wannian
婺源县,婺源,3,793,333200,中国-江西省-上饶市-婺源县,117.86105,29.24841,Wuyuan
德兴市,德兴,3,793,334200,中国-江西省-上饶市-德兴市,117.57919,28.94736,Dexing
山东省,山东,1,,,中国-山东省,117.000923,36.675807,Shandong
济南市,济南,2,531,250001,中国-山东省-济南市,117.000923,36.675807,Jinan
历下区,历下,3,531,250014,中国-山东省-济南市-历下区,117.0768,36.66661,Lixia
市中区,市中区,3,531,250001,中国-山东省-济南市-市中区,116.99741,36.65101,Shizhongqu
槐荫区,槐荫,3,531,250117,中国-山东省-济南市-槐荫区,116.90075,36.65136,Huaiyin
天桥区,天桥,3,531,250031,中国-山东省-济南市-天桥区,116.98749,36.67801,Tianqiao
历城区,历城,3,531,250100,中国-山东省-济南市-历城区,117.06509,36.67995,Licheng
长清区,长清,3,531,250300,中国-山东省-济南市-长清区,116.75192,36.55352,Changqing
平阴县,平阴,3,531,250400,中国-山东省-济南市-平阴县,116.45587,36.28955,Pingyin
济阳县,济阳,3,531,251400,中国-山东省-济南市-济阳县,117.17327,36.97845,Jiyang
商河县,商河,3,531,251600,中国-山东省-济南市-商河县,117.15722,37.31119,Shanghe
章丘市,章丘,3,531,250200,中国-山东省-济南市-章丘市,117.53677,36.71392,Zhangqiu
青岛市,青岛,2,532,266001,中国-山东省-青岛市,120.369557,36.094406,Qingdao
市南区,市南,3,532,266001,中国-山东省-青岛市-市南区,120.38773,36.06671,Shinan
市北区,市北,3,532,266011,中国-山东省-青岛市-市北区,120.37469,36.08734,Shibei
黄岛区,黄岛,3,532,266500,中国-山东省-青岛市-黄岛区,120.19775,35.96065,Huangdao
崂山区,崂山,3,532,266100,中国-山东省-青岛市-崂山区,120.46923,36.10717,Laoshan
李沧区,李沧,3,532,266021,中国-山东省-青岛市-李沧区,120.43286,36.14502,Licang
城阳区,城阳,3,532,266041,中国-山东省-青岛市-城阳区,120.39621,36.30735,Chengyang
胶州市,胶州,3,532,266300,中国-山东省-青岛市-胶州市,120.0335,36.26442,Jiaozhou
即墨市,即墨,3,532,266200,中国-山东省-青岛市-即墨市,120.44699,36.38907,Jimo
平度市,平度,3,532,266700,中国-山东省-青岛市-平度市,119.95996,36.78688,Pingdu
莱西市,莱西,3,532,266600,中国-山东省-青岛市-莱西市,120.51773,36.88804,Laixi
西海岸新区,西海岸,3,532,266500,中国-山东省-青岛市-西海岸新区,120.19775,35.96065,Xihai'an
淄博市,淄博,2,533,255039,中国-山东省-淄博市,118.047648,36.814939,Zibo
淄川区,淄川,3,533,255100,中国-山东省-淄博市-淄川区,117.96655,36.64339,Zichuan
张店区,张店,3,533,255022,中国-山东省-淄博市-张店区,118.01788,36.80676,Zhangdian
博山区,博山,3,533,255200,中国-山东省-淄博市-博山区,117.86166,36.49469,Boshan
临淄区,临淄,3,533,255400,中国-山东省-淄博市-临淄区,118.30966,36.8259,Linzi
周村区,周村,3,533,255300,中国-山东省-淄博市-周村区,117.86969,36.80322,Zhoucun
桓台县,桓台,3,533,256400,中国-山东省-淄博市-桓台县,118.09698,36.96036,Huantai
高青县,高青,3,533,256300,中国-山东省-淄博市-高青县,117.82708,37.17197,Gaoqing
沂源县,沂源,3,533,256100,中国-山东省-淄博市-沂源县,118.17105,36.18536,Yiyuan
枣庄市,枣庄,2,632,277101,中国-山东省-枣庄市,117.557964,34.856424,Zaozhuang
市中区,市中区,3,632,277101,中国-山东省-枣庄市-市中区,117.55603,34.86391,Shizhongqu
薛城区,薛城,3,632,277000,中国-山东省-枣庄市-薛城区,117.26318,34.79498,Xuecheng
峄城区,峄城,3,632,277300,中国-山东省-枣庄市-峄城区,117.59057,34.77225,Yicheng
台儿庄区,台儿庄,3,632,277400,中国-山东省-枣庄市-台儿庄区,117.73452,34.56363,Taierzhuang
山亭区,山亭,3,632,277200,中国-山东省-枣庄市-山亭区,117.4663,35.09541,Shanting
滕州市,滕州,3,632,277500,中国-山东省-枣庄市-滕州市,117.165,35.10534,Tengzhou
东营市,东营,2,546,257093,中国-山东省-东营市,118.4963,37.461266,Dongying
东营区,东营,3,546,257029,中国-山东省-东营市-东营区,118.5816,37.44875,Dongying
河口区,河口,3,546,257200,中国-山东省-东营市-河口区,118.5249,37.88541,Hekou
垦利县,垦利,3,546,257500,中国-山东省-东营市-垦利县,118.54815,37.58825,Kenli
利津县,利津,3,546,257400,中国-山东省-东营市-利津县,118.25637,37.49157,Lijin
广饶县,广饶,3,546,257300,中国-山东省-东营市-广饶县,118.40704,37.05381,Guangrao
烟台市,烟台,2,635,264010,中国-山东省-烟台市,121.391382,37.539297,Yantai
芝罘区,芝罘,3,635,264001,中国-山东省-烟台市-芝罘区,121.40023,37.54064,Zhifu
福山区,福山,3,635,265500,中国-山东省-烟台市-福山区,121.26812,37.49841,Fushan
牟平区,牟平,3,635,264100,中国-山东省-烟台市-牟平区,121.60067,37.38846,Muping
莱山区,莱山,3,635,264600,中国-山东省-烟台市-莱山区,121.44512,37.51165,Laishan
长岛县,长岛,3,635,265800,中国-山东省-烟台市-长岛县,120.738,37.91754,Changdao
龙口市,龙口,3,635,265700,中国-山东省-烟台市-龙口市,120.50634,37.64064,Longkou
莱阳市,莱阳,3,635,265200,中国-山东省-烟台市-莱阳市,120.71066,36.98012,Laiyang
莱州市,莱州,3,635,261400,中国-山东省-烟台市-莱州市,119.94137,37.17806,Laizhou
蓬莱市,蓬莱,3,635,265600,中国-山东省-烟台市-蓬莱市,120.75988,37.81119,Penglai
招远市,招远,3,635,265400,中国-山东省-烟台市-招远市,120.40481,37.36269,Zhaoyuan
栖霞市,栖霞,3,635,265300,中国-山东省-烟台市-栖霞市,120.85025,37.33571,Qixia
海阳市,海阳,3,635,265100,中国-山东省-烟台市-海阳市,121.15976,36.77622,Haiyang
潍坊市,潍坊,2,536,261041,中国-山东省-潍坊市,119.107078,36.70925,Weifang
潍城区,潍城,3,536,261021,中国-山东省-潍坊市-潍城区,119.10582,36.7139,Weicheng
寒亭区,寒亭,3,536,261100,中国-山东省-潍坊市-寒亭区,119.21832,36.77504,Hanting
坊子区,坊子,3,536,261200,中国-山东省-潍坊市-坊子区,119.16476,36.65218,Fangzi
奎文区,奎文,3,536,261031,中国-山东省-潍坊市-奎文区,119.12532,36.70723,Kuiwen
临朐县,临朐,3,536,262600,中国-山东省-潍坊市-临朐县,118.544,36.51216,Linqu
昌乐县,昌乐,3,536,262400,中国-山东省-潍坊市-昌乐县,118.83017,36.7078,Changle
青州市,青州,3,536,262500,中国-山东省-潍坊市-青州市,118.47915,36.68505,Qingzhou
诸城市,诸城,3,536,262200,中国-山东省-潍坊市-诸城市,119.40988,35.99662,Zhucheng
寿光市,寿光,3,536,262700,中国-山东省-潍坊市-寿光市,118.74047,36.88128,Shouguang
安丘市,安丘,3,536,262100,中国-山东省-潍坊市-安丘市,119.2189,36.47847,Anqiu
高密市,高密,3,536,261500,中国-山东省-潍坊市-高密市,119.75701,36.38397,Gaomi
昌邑市,昌邑,3,536,261300,中国-山东省-潍坊市-昌邑市,119.39767,36.86008,Changyi
济宁市,济宁,2,537,272119,中国-山东省-济宁市,116.587245,35.415393,Jining
任城区,任城,3,537,272113,中国-山东省-济宁市-任城区,116.59504,35.40659,Rencheng
兖州区,兖州,3,537,272000,中国-山东省-济宁市-兖州区,116.826546,35.552305,Yanzhou 
微山县,微山,3,537,277600,中国-山东省-济宁市-微山县,117.12875,34.80712,Weishan
鱼台县,鱼台,3,537,272300,中国-山东省-济宁市-鱼台县,116.64761,34.99674,Yutai
金乡县,金乡,3,537,272200,中国-山东省-济宁市-金乡县,116.31146,35.065,Jinxiang
嘉祥县,嘉祥,3,537,272400,中国-山东省-济宁市-嘉祥县,116.34249,35.40836,Jiaxiang
汶上县,汶上,3,537,272501,中国-山东省-济宁市-汶上县,116.48742,35.73295,Wenshang
泗水县,泗水,3,537,273200,中国-山东省-济宁市-泗水县,117.27948,35.66113,Sishui
梁山县,梁山,3,537,272600,中国-山东省-济宁市-梁山县,116.09683,35.80322,Liangshan
曲阜市,曲阜,3,537,273100,中国-山东省-济宁市-曲阜市,116.98645,35.58091,Qufu
邹城市,邹城,3,537,273500,中国-山东省-济宁市-邹城市,116.97335,35.40531,Zoucheng
泰安市,泰安,2,538,271000,中国-山东省-泰安市,117.129063,36.194968,Tai'an
泰山区,泰山,3,538,271000,中国-山东省-泰安市-泰山区,117.13446,36.19411,Taishan
岱岳区,岱岳,3,538,271000,中国-山东省-泰安市-岱岳区,117.04174,36.1875,Daiyue
宁阳县,宁阳,3,538,271400,中国-山东省-泰安市-宁阳县,116.80542,35.7599,Ningyang
东平县,东平,3,538,271500,中国-山东省-泰安市-东平县,116.47113,35.93792,Dongping
新泰市,新泰,3,538,271200,中国-山东省-泰安市-新泰市,117.76959,35.90887,Xintai
肥城市,肥城,3,538,271600,中国-山东省-泰安市-肥城市,116.76815,36.18247,Feicheng
威海市,威海,2,631,264200,中国-山东省-威海市,122.116394,37.509691,Weihai
环翠区,环翠,3,631,264200,中国-山东省-威海市-环翠区,122.12344,37.50199,Huancui
文登区,文登,3,631,266440,中国-山东省-威海市-文登区,122.057139,37.196211,Wendeng
荣成市,荣成,3,631,264300,中国-山东省-威海市-荣成市,122.48773,37.1652,Rongcheng
乳山市,乳山,3,631,264500,中国-山东省-威海市-乳山市,121.53814,36.91918,Rushan
日照市,日照,2,633,276800,中国-山东省-日照市,119.461208,35.428588,Rizhao
东港区,东港,3,633,276800,中国-山东省-日照市-东港区,119.46237,35.42541,Donggang
岚山区,岚山,3,633,276808,中国-山东省-日照市-岚山区,119.31884,35.12203,Lanshan
五莲县,五莲,3,633,262300,中国-山东省-日照市-五莲县,119.207,35.75004,Wulian
莒县,莒县,3,633,276500,中国-山东省-日照市-莒县,118.83789,35.58054,Juxian
莱芜市,莱芜,2,634,271100,中国-山东省-莱芜市,117.677736,36.214397,Laiwu
莱城区,莱城,3,634,271199,中国-山东省-莱芜市-莱城区,117.65986,36.2032,Laicheng
钢城区,钢城,3,634,271100,中国-山东省-莱芜市-钢城区,117.8049,36.06319,Gangcheng
临沂市,临沂,2,539,253000,中国-山东省-临沂市,118.326443,35.065282,Linyi
兰山区,兰山,3,539,276002,中国-山东省-临沂市-兰山区,118.34817,35.06872,Lanshan
罗庄区,罗庄,3,539,276022,中国-山东省-临沂市-罗庄区,118.28466,34.99627,Luozhuang
河东区,河东,3,539,276034,中国-山东省-临沂市-河东区,118.41055,35.08803,Hedong
沂南县,沂南,3,539,276300,中国-山东省-临沂市-沂南县,118.47061,35.55131,Yinan
郯城县,郯城,3,539,276100,中国-山东省-临沂市-郯城县,118.36712,34.61354,Tancheng
沂水县,沂水,3,539,276400,中国-山东省-临沂市-沂水县,118.63009,35.78731,Yishui
兰陵县,兰陵,3,539,277700,中国-山东省-临沂市-兰陵县,117.856592,34.738315,Lanling
费县,费县,3,539,273400,中国-山东省-临沂市-费县,117.97836,35.26562,Feixian
平邑县,平邑,3,539,273300,中国-山东省-临沂市-平邑县,117.63867,35.50573,Pingyi
莒南县,莒南,3,539,276600,中国-山东省-临沂市-莒南县,118.83227,35.17539,Junan
蒙阴县,蒙阴,3,539,276200,中国-山东省-临沂市-蒙阴县,117.94592,35.70996,Mengyin
临沭县,临沭,3,539,276700,中国-山东省-临沂市-临沭县,118.65267,34.92091,Linshu
德州市,德州,2,534,253000,中国-山东省-德州市,116.307428,37.453968,Dezhou
德城区,德城,3,534,253012,中国-山东省-德州市-德城区,116.29943,37.45126,Decheng
陵城区,陵城,3,534,253500,中国-山东省-德州市-陵城区,116.57601,37.33571,Lingcheng
宁津县,宁津,3,534,253400,中国-山东省-德州市-宁津县,116.79702,37.65301,Ningjin
庆云县,庆云,3,534,253700,中国-山东省-德州市-庆云县,117.38635,37.77616,Qingyun
临邑县,临邑,3,534,251500,中国-山东省-德州市-临邑县,116.86547,37.19053,Linyi
齐河县,齐河,3,534,251100,中国-山东省-德州市-齐河县,116.75515,36.79532,Qihe
平原县,平原,3,534,253100,中国-山东省-德州市-平原县,116.43432,37.16632,Pingyuan
夏津县,夏津,3,534,253200,中国-山东省-德州市-夏津县,116.0017,36.94852,Xiajin
武城县,武城,3,534,253300,中国-山东省-德州市-武城县,116.07009,37.21403,Wucheng
乐陵市,乐陵,3,534,253600,中国-山东省-德州市-乐陵市,117.23141,37.73164,Leling
禹城市,禹城,3,534,251200,中国-山东省-德州市-禹城市,116.64309,36.93444,Yucheng
聊城市,聊城,2,635,252052,中国-山东省-聊城市,115.980367,36.456013,Liaocheng
东昌府区,东昌府,3,635,252000,中国-山东省-聊城市-东昌府区,115.97383,36.44458,Dongchangfu
阳谷县,阳谷,3,635,252300,中国-山东省-聊城市-阳谷县,115.79126,36.11444,Yanggu
莘县,莘县,3,635,252400,中国-山东省-聊城市-莘县,115.6697,36.23423,Shenxian
茌平县,茌平,3,635,252100,中国-山东省-聊城市-茌平县,116.25491,36.57969,Chiping
东阿县,东阿,3,635,252200,中国-山东省-聊城市-东阿县,116.25012,36.33209,Dong'e
冠县,冠县,3,635,252500,中国-山东省-聊城市-冠县,115.44195,36.48429,Guanxian
高唐县,高唐,3,635,252800,中国-山东省-聊城市-高唐县,116.23172,36.86535,Gaotang
临清市,临清,3,635,252600,中国-山东省-聊城市-临清市,115.70629,36.83945,Linqing
滨州市,滨州,2,543,256619,中国-山东省-滨州市,118.016974,37.383542,Binzhou
滨城区,滨城,3,543,256613,中国-山东省-滨州市-滨城区,118.02026,37.38524,Bincheng
沾化区,沾化,3,543,256800,中国-山东省-滨州市-沾化区,118.13214,37.69832,Zhanhua
惠民县,惠民,3,543,251700,中国-山东省-滨州市-惠民县,117.51113,37.49013,Huimin
阳信县,阳信,3,543,251800,中国-山东省-滨州市-阳信县,117.58139,37.64198,Yangxin
无棣县,无棣,3,543,251900,中国-山东省-滨州市-无棣县,117.61395,37.74009,Wudi
博兴县,博兴,3,543,256500,中国-山东省-滨州市-博兴县,118.1336,37.14316,Boxing
邹平县,邹平,3,543,256200,中国-山东省-滨州市-邹平县,117.74307,36.86295,Zouping
北海新区,北海新区,3,543,256200,中国-山东省-滨州市-北海新区,118.016974,37.383542,Beihaixinqu
菏泽市,菏泽,2,530,274020,中国-山东省-菏泽市,115.469381,35.246531,Heze
牡丹区,牡丹,3,530,274009,中国-山东省-菏泽市-牡丹区,115.41662,35.25091,Mudan
曹县,曹县,3,530,274400,中国-山东省-菏泽市-曹县,115.54226,34.82659,Caoxian
单县,单县,3,530,273700,中国-山东省-菏泽市-单县,116.08703,34.79514,Shanxian
成武县,成武,3,530,274200,中国-山东省-菏泽市-成武县,115.8897,34.95332,Chengwu
巨野县,巨野,3,530,274900,中国-山东省-菏泽市-巨野县,116.09497,35.39788,Juye
郓城县,郓城,3,530,274700,中国-山东省-菏泽市-郓城县,115.94439,35.60044,Yuncheng
鄄城县,鄄城,3,530,274600,中国-山东省-菏泽市-鄄城县,115.50997,35.56412,Juancheng
定陶县,定陶,3,530,274100,中国-山东省-菏泽市-定陶县,115.57287,35.07118,Dingtao
东明县,东明,3,530,274500,中国-山东省-菏泽市-东明县,115.09079,35.28906,Dongming
河南省,河南,1,,,中国-河南省,113.665412,34.757975,Henan
郑州市,郑州,2,371,450000,中国-河南省-郑州市,113.665412,34.757975,Zhengzhou
中原区,中原,3,371,450007,中国-河南省-郑州市-中原区,113.61333,34.74827,Zhongyuan
二七区,二七,3,371,450052,中国-河南省-郑州市-二七区,113.63931,34.72336,Erqi
管城回族区,管城,3,371,450000,中国-河南省-郑州市-管城回族区,113.67734,34.75383,Guancheng
金水区,金水,3,371,450003,中国-河南省-郑州市-金水区,113.66057,34.80028,Jinshui
上街区,上街,3,371,450041,中国-河南省-郑州市-上街区,113.30897,34.80276,Shangjie
惠济区,惠济,3,371,450053,中国-河南省-郑州市-惠济区,113.61688,34.86735,Huiji
中牟县,中牟,3,371,451450,中国-河南省-郑州市-中牟县,113.97619,34.71899,Zhongmu
巩义市,巩义,3,371,451200,中国-河南省-郑州市-巩义市,113.022,34.74794,Gongyi
荥阳市,荥阳,3,371,450100,中国-河南省-郑州市-荥阳市,113.38345,34.78759,Xingyang
新密市,新密,3,371,452300,中国-河南省-郑州市-新密市,113.3869,34.53704,Xinmi
新郑市,新郑,3,371,451100,中国-河南省-郑州市-新郑市,113.73645,34.3955,Xinzheng
登封市,登封,3,371,452470,中国-河南省-郑州市-登封市,113.05023,34.45345,Dengfeng
开封市,开封,2,378,475001,中国-河南省-开封市,114.341447,34.797049,Kaifeng
龙亭区,龙亭,3,378,475100,中国-河南省-开封市-龙亭区,114.35484,34.79995,Longting
顺河回族区,顺河,3,378,475000,中国-河南省-开封市-顺河回族区,114.36123,34.79586,Shunhe
鼓楼区,鼓楼,3,378,475000,中国-河南省-开封市-鼓楼区,114.35559,34.79517,Gulou
禹王台区,禹王台,3,378,475003,中国-河南省-开封市-禹王台区,114.34787,34.77693,Yuwangtai
祥符区,祥符,3,378,475100,中国-河南省-开封市-祥符区,114.43859,34.75874,Xiangfu
杞县,杞县,3,378,475200,中国-河南省-开封市-杞县,114.7828,34.55033,Qixian
通许县,通许,3,378,475400,中国-河南省-开封市-通许县,114.46716,34.47522,Tongxu
尉氏县,尉氏,3,378,475500,中国-河南省-开封市-尉氏县,114.19284,34.41223,Weishi
兰考县,兰考,3,378,475300,中国-河南省-开封市-兰考县,114.81961,34.8235,Lankao
洛阳市,洛阳,2,379,471000,中国-河南省-洛阳市,112.434468,34.663041,Luoyang
老城区,老城,3,379,471002,中国-河南省-洛阳市-老城区,112.46902,34.68364,Laocheng
西工区,西工,3,379,471000,中国-河南省-洛阳市-西工区,112.4371,34.67,Xigong
e河回族区,e河,3,379,471002,中国-河南省-洛阳市-e河回族区,112.50018,34.67985,Chanhe
涧西区,涧西,3,379,471003,中国-河南省-洛阳市-涧西区,112.39588,34.65823,Jianxi
吉利区,吉利,3,379,471012,中国-河南省-洛阳市-吉利区,112.58905,34.90088,Jili
洛龙区,洛龙,3,379,471000,中国-河南省-洛阳市-洛龙区,112.46412,34.61866,Luolong
孟津县,孟津,3,379,471100,中国-河南省-洛阳市-孟津县,112.44351,34.826,Mengjin
新安县,新安,3,379,471800,中国-河南省-洛阳市-新安县,112.13238,34.72814,Xin'an
栾川县,栾川,3,379,471500,中国-河南省-洛阳市-栾川县,111.61779,33.78576,Luanchuan
嵩县,嵩县,3,379,471400,中国-河南省-洛阳市-嵩县,112.08526,34.13466,Songxian
汝阳县,汝阳,3,379,471200,中国-河南省-洛阳市-汝阳县,112.47314,34.15387,Ruyang
宜阳县,宜阳,3,379,471600,中国-河南省-洛阳市-宜阳县,112.17907,34.51523,Yiyang
洛宁县,洛宁,3,379,471700,中国-河南省-洛阳市-洛宁县,111.65087,34.38913,Luoning
伊川县,伊川,3,379,471300,中国-河南省-洛阳市-伊川县,112.42947,34.42205,Yichuan
偃师市,偃师,3,379,471900,中国-河南省-洛阳市-偃师市,112.7922,34.7281,Yanshi
平顶山市,平顶山,2,375,467000,中国-河南省-平顶山市,113.307718,33.735241,Pingdingshan
新华区,新华,3,375,467002,中国-河南省-平顶山市-新华区,113.29402,33.7373,Xinhua
卫东区,卫东,3,375,467021,中国-河南省-平顶山市-卫东区,113.33511,33.73472,Weidong
石龙区,石龙,3,375,467045,中国-河南省-平顶山市-石龙区,112.89879,33.89878,Shilong
湛河区,湛河,3,375,467000,中国-河南省-平顶山市-湛河区,113.29252,33.7362,Zhanhe
宝丰县,宝丰,3,375,467400,中国-河南省-平顶山市-宝丰县,113.05493,33.86916,Baofeng
叶县,叶县,3,375,467200,中国-河南省-平顶山市-叶县,113.35104,33.62225,Yexian
